Ref,Name,Category,Address,Days,Hours,Number of Reviews,Rating,Excellent,Very Good,Average,Poor,Terrible,Certified,Latitude,Longitude
/Attraction_Review-g303631-d311966-Reviews-Parque_Ibirapuera-Sao_Paulo_State_of_Sao_Paulo.html,Parque Ibirapuera,Natureza e parques,"Av. Pedro Álvares Cabral | Vila Mariana, São Paulo, Estado de São Paulo 04094-050, Brasil",Dom - Sáb,05:00 - 00:00,36.534,"4,5",65%,29%,4%,1%,1%,True,-23.59161,-46.65056
/Attraction_Review-g303631-d550339-Reviews-Paulista_Avenue-Sao_Paulo_State_of_Sao_Paulo.html,Avenida Paulista,Pontos turísticos e de interesse,"Av. Paulista, São Paulo, Estado de São Paulo 01311-200, Brasil",,,29.104,"4,5",62%,29%,7%,1%,1%,True,-23.55731,-46.66108
/Attraction_Review-g303631-d4377562-Reviews-Corinthians_Arena-Sao_Paulo_State_of_Sao_Paulo.html,Arena Corinthians,Pontos turísticos e de interesse,"Avenida Miguel Ignacio Curi, 111 | Itaquera, São Paulo, Estado de São Paulo 08295-005, Brasil",Dom - Sáb,09:30 - 16:30,4.423,"4,5",81%,14%,3%,1%,1%,True,-23.54623,-46.47236
/Attraction_Review-g303631-d2349915-Reviews-Allianz_Parque-Sao_Paulo_State_of_Sao_Paulo.html,Allianz Parque,Pontos turísticos e de interesse,"Avenida Francisco Matarazzo 1705 | Água Branca, São Paulo, Estado de São Paulo 05001-200, Brasil",Dom - Sáb,10:00 - 17:00,5.138,"4,5",74%,21%,3%,1%,1%,True,-23.52581,-46.67978
/Attraction_Review-g303631-d1407969-Reviews-Museu_do_Futebol-Sao_Paulo_State_of_Sao_Paulo.html,Museu do Futebol,Museus,"Praça Charles Miller, S/N | Estádio do Pacaembu, São Paulo, Estado de São Paulo 01234-900, Brasil",Ter - Dom,09:00 - 17:00,9.404,"4,5",61%,32%,5%,1%,1%,True,-23.54495,-46.6658
/Attraction_Review-g303631-d311969-Reviews-Pinacoteca_do_Estado_de_Sao_Paulo-Sao_Paulo_State_of_Sao_Paulo.html,Pinacoteca do Estado de São Paulo,Museus,"Praça da Luz, 2, São Paulo, Estado de São Paulo 01120-010, Brasil",Qua - Seg,10:00 - 17:30,13.72,"4,5",70%,25%,3%,1%,1%,True,-23.53478,-46.6341
/Attraction_Review-g303631-d311974-Reviews-Municipal_Market_of_Sao_Paulo-Sao_Paulo_State_of_Sao_Paulo.html,Mercado Municipal de São Paulo,Gastronomia,"Rua da Cantareira 306, São Paulo, Estado de São Paulo 01024-000, Brasil",Dom,07:00 - 16:00,22.67,"4,5",54%,36%,8%,1%,1%,True,-23.54183,-46.62991
/Attraction_Review-g303631-d1793914-Reviews-Catavento_Cultural_e_Educacional-Sao_Paulo_State_of_Sao_Paulo.html,Catavento Cultural e Educacional,Museus,"Praca Civica Ulisses Guimaraes | Palácio das Indústrias, São Paulo, Estado de São Paulo 03003-060, Brasil",Ter - Dom,09:00 - 17:00,7.5360000000000005,"4,5",72%,24%,2%,1%,1%,True,0.0,0.0
/Attraction_Review-g303631-d532186-Reviews-Jardim_Botanico_de_Sao_Paulo-Sao_Paulo_State_of_Sao_Paulo.html,Jardim Botânico de São Paulo,Museus,"Avenida Miguel Estefno 3031 | Água Funda, São Paulo, Estado de São Paulo 04301-902, Brasil",Ter - Dom,09:00 - 17:00,3.3760000000000003,"4,5",62%,31%,5%,1%,1%,True,-23.64405,-46.6264
/Attraction_Review-g303631-d317946-Reviews-Liberdade-Sao_Paulo_State_of_Sao_Paulo.html,Bairro da Liberdade,Pontos turísticos e de interesse,"São Paulo, Estado de São Paulo, Brasil",,,12.62,"4,5",47%,39%,12%,1%,1%,True,-23.20497,-47.30416
/Attraction_Review-g303631-d2349935-Reviews-Batman_Alley-Sao_Paulo_State_of_Sao_Paulo.html,Beco do Batman,Pontos turísticos e de interesse,"Rua Gonçalo Afonso | Vila Madalena, São Paulo, Estado de São Paulo 05436-100, Brasil",,,2.294,"4,5",51%,36%,11%,1%,1%,True,-23.5566,-46.68615
/Attraction_Review-g303631-d4584434-Reviews-Renault_Theatre_The_Phantom_of_the_Opera-Sao_Paulo_State_of_Sao_Paulo.html,Teatro Renault,Concertos e shows,"Avenida Brigadeiro Luís Antônio, 411, São Paulo, Estado de São Paulo 01317-000, Brasil",Dom,13:00 - 22:30,3.8339999999999996,"4,5",63%,32%,3%,1%,1%,True,-23.55336,-46.63841
/Attraction_Review-g303631-d14121877-Reviews-Mirante_Sesc_Paulista-Sao_Paulo_State_of_Sao_Paulo.html,Mirante Sesc Paulista,Pontos turísticos e de interesse,"Av. Paulista, 119 | 17º andar, São Paulo, Estado de São Paulo 01311-903, Brasil",,,582.0,"4,5",72%,24%,2%,1%,1%,False,-22.48,-46.63772
/Attraction_Review-g303631-d2350247-Reviews-Museu_do_Som_e_Imagem_MIS-Sao_Paulo_State_of_Sao_Paulo.html,Museu do Som e Imagem - MIS,Museus,"Av. Europa, 158 | Jd Europa, São Paulo, Estado de São Paulo 01449-000, Brasil",Dom,09:00 - 18:00,2.271,"4,5",62%,30%,6%,1%,1%,True,-22.72208,-47.32893
/Attraction_Review-g303631-d4479907-Reviews-Parque_Ecologico_do_Tiete-Sao_Paulo_State_of_Sao_Paulo.html,Parque Ecológico do Tietê,Diversão e jogos,"Rodovia Parque 8054 | Núcleo Engenheiro Goulart - Vila Santo Henrique, São Paulo, Estado de São Paulo 03718-090, Brasil",Dom - Sáb,08:00 - 17:00,527.0,"4,5",67%,24%,7%,1%,1%,False,0.0,0.0
/Attraction_Review-g303631-d317843-Reviews-Farol_Santander-Sao_Paulo_State_of_Sao_Paulo.html,Farol Santander,Pontos turísticos e de interesse,"Rua João Brícola, 24 | Centro, São Paulo, Estado de São Paulo 01014-900, Brasil",Dom,09:00 - 19:00,1.8,"4,5",52%,35%,9%,2%,2%,True,-23.5453,-46.63399
/Attraction_Review-g303631-d532236-Reviews-Mosteiro_De_Sao_Bento-Sao_Paulo_State_of_Sao_Paulo.html,Mosteiro De São Bento,Pontos turísticos e de interesse,"Largo De São Bento | Centro, São Paulo, Estado de São Paulo 01029-010, Brasil",,,6.436,"4,5",64%,29%,5%,1%,1%,True,-23.50165,-47.46
/Attraction_Review-g303631-d8446508-Reviews-Parque_da_Monica-Sao_Paulo_State_of_Sao_Paulo.html,Parque da Mônica,Parques de diversões e aquáticos,"Av. das Nações Unidas, 22.540 | Shopping SP Market, São Paulo, Estado de São Paulo 04795-970, Brasil",Sex,10:30 - 16:30,1.149,"4,0",37%,41%,17%,3%,2%,True,-23.63647,-46.71972
/Attraction_Review-g303631-d317785-Reviews-Zoologico_de_Sao_Paulo-Sao_Paulo_State_of_Sao_Paulo.html,Zoológico de São Paulo,Zoológicos e aquários,"Av. Miguel Estefano, 4241 | Água Funda, São Paulo, Estado de São Paulo 04301-905, Brasil",,,5.06,"4,0",47%,38%,12%,2%,1%,True,-23.65756,-46.6172
/Attraction_Review-g303631-d311968-Reviews-Museu_de_Arte_de_Sao_Paulo_Assis_Chateaubriand_MASP-Sao_Paulo_State_of_Sao_Paulo.html,Museu de Arte de São Paulo Assis Chateaubriand - MASP,Museus,"Avenida Paulista, 1578 | Jardins, São Paulo, Estado de São Paulo 01310-200, Brasil",Qui,08:00 - 20:00,7.803,"4,5",64%,28%,6%,1%,1%,True,-23.56134,-46.65648
/Attraction_Review-g303631-d2349912-Reviews-Sao_Paulo_Aquarium-Sao_Paulo_State_of_Sao_Paulo.html,Aquário de São Paulo,Zoológicos e aquários,"Rua Huet Bacelar, 407 | Ipiranga, São Paulo, Estado de São Paulo 04275-000, Brasil",Dom - Sáb,09:00 - 17:00,4.254,"4,0",44%,40%,13%,2%,1%,True,-23.59347,-46.61428
/Attraction_Review-g303631-d3860053-Reviews-Parque_Estadual_da_Cantareira_Nucleo_Pedra_Grande-Sao_Paulo_State_of_Sao_Paulo.html,Parque Estadual da Cantareira - Núcleo Pedra Grande,Atividades ao ar livre,"Rua do Horto 1799 | Parque Estadual da Cantareira, São Paulo, Estado de São Paulo 02377-000, Brasil",Sáb - Dom,08:00 - 17:00,1.412,"4,5",63%,31%,4%,1%,1%,True,-23.45718,-46.63411
/Attraction_Review-g303631-d7066911-Reviews-Temple_of_Solomon-Sao_Paulo_State_of_Sao_Paulo.html,Templo de Salomão,Museus,"Av. Celso Garcia, 605 | Brás, São Paulo, Estado de São Paulo 03015-000, Brasil",Dom,05:00 - 20:00,1.652,"4,5",81%,11%,5%,1%,2%,True,-23.53975,-46.61042
/Attraction_Review-g303631-d638779-Reviews-Jardins_District-Sao_Paulo_State_of_Sao_Paulo.html,Jardins (Bairro),Pontos turísticos e de interesse," | Jardins, São Paulo, Estado de São Paulo 01415-002, Brasil",,,5.207999999999999,"4,5",61%,33%,4%,1%,1%,True,-22.34591,-47.36818
/Attraction_Review-g303631-d2350321-Reviews-Villa_Lobos_Park-Sao_Paulo_State_of_Sao_Paulo.html,Parque Villa Lobos,Natureza e parques,"Av. Professor Fonseca Rodrigues, 2001 | Alto de Pinheiros, São Paulo, Estado de São Paulo 05461-010, Brasil",Dom - Sáb,05:30 - 19:00,3.5789999999999997,"4,5",52%,38%,8%,1%,1%,True,0.0,0.0
/Attraction_Review-g303631-d311971-Reviews-Theatro_Municipal_De_Sao_Paulo-Sao_Paulo_State_of_Sao_Paulo.html,Theatro Municipal De São Paulo,Concertos e shows,"Praça Ramos de Azevedo, São Paulo, Estado de São Paulo 01037-010, Brasil",Seg - Sex,10:00 - 17:00,2.7689999999999997,"4,5",68%,27%,3%,1%,1%,True,-23.5451,-46.63807
/Attraction_Review-g303631-d317825-Reviews-Italian_Building-Sao_Paulo_State_of_Sao_Paulo.html,Edifício Itália,Pontos turísticos e de interesse,"Avenida Ipiranga 344, São Paulo, Estado de São Paulo 01046-010, Brasil",,,1.445,"4,5",54%,34%,10%,1%,1%,True,-23.54502,-46.64363
/Attraction_Review-g303631-d6583158-Reviews-Solo_Sagrado_De_Guarapiranga-Sao_Paulo_State_of_Sao_Paulo.html,Solo Sagrado De Guarapiranga,Pontos turísticos e de interesse,"Avenida Professor Herman von Ihering 6567 | Jardim Casa Grande, São Paulo, Estado de São Paulo 04870-901, Brasil",,,1.525,"4,5",76%,20%,2%,1%,1%,True,0.0,0.0
/Attraction_Review-g303631-d3460441-Reviews-Shopping_JK_Iguatemi-Sao_Paulo_State_of_Sao_Paulo.html,Shopping JK Iguatemi,Compras,"Avenida Presidente Juscelino Kubitschek 2041, São Paulo, Estado de São Paulo 04543-011, Brasil",Dom,12:00 - 22:00,1.6840000000000002,"4,5",60%,31%,7%,1%,1%,True,-23.59071,-46.68956
/Attraction_Review-g303631-d2350351-Reviews-Shopping_Iguatemi-Sao_Paulo_State_of_Sao_Paulo.html,Shopping Iguatemi,Compras,"Avenida Brigadeiro Faria Lima 2232 | Jardim Paulistano, São Paulo, Estado de São Paulo 01489-900, Brasil",Dom,14:00 - 20:00,985.0,"4,5",57%,33%,8%,1%,1%,True,0.0,0.0
/Attraction_Review-g303631-d313783-Reviews-Itau_Cultural_Institute-Sao_Paulo_State_of_Sao_Paulo.html,Itaú Cultural,Museus de arte,"Avenida Paulista, 149, São Paulo, Estado de São Paulo 01311-000, Brasil",Ter - Sex,09:00 - 20:00,943.0,"4,5",61%,34%,4%,1%,0%,True,-23.50302,-46.38394
/Attraction_Review-g303631-d311962-Reviews-Butantan_Institute-Sao_Paulo_State_of_Sao_Paulo.html,Instituto Butantan,Zoológicos,"Avenida Doutor Vital Brasil 1500, São Paulo, Estado de São Paulo 05503-900, Brasil",Sáb - Dom,07:00 - 18:00,1.325,"4,5",50%,37%,11%,1%,1%,True,-23.56903,-46.71524
/Attraction_Review-g303631-d2350214-Reviews-Museum_of_Immigration_of_the_State_of_Sao_Paulo-Sao_Paulo_State_of_Sao_Paulo.html,Museu da Imigração do Estado de São Paulo,Museus especializados,"Rua Visconde de Parnaíba, 1316, São Paulo, Estado de São Paulo 03164-300, Brasil",Dom,10:00 - 17:00,1.151,"4,5",60%,33%,5%,1%,1%,True,-23.54912,-46.61244
/Attraction_Review-g303631-d313788-Reviews-Instituto_Tomie_Ohtake-Sao_Paulo_State_of_Sao_Paulo.html,Instituto Tomie Ohtake,Museus de arte,"Avenida Faria Lima, 201 | Entrada Rua dos Coropés, São Paulo, Estado de São Paulo 05426-010, Brasil",,,2.5810000000000004,"4,5",60%,33%,5%,1%,1%,True,-23.56138,-46.69457
/Attraction_Review-g303631-d14157091-Reviews-Museu_Catavento-Sao_Paulo_State_of_Sao_Paulo.html,Museu Catavento,Museus de ciência,"Av. Mercúrio, s/n | Brás, São Paulo, Estado de São Paulo 03003-060, Brasil",Ter - Dom,09:00 - 17:00,208.0,"4,5",77%,21%,1%,0%,1%,False,-23.54208,-46.62734
/Attraction_Review-g303631-d2350028-Reviews-Morumbi_Stadium-Sao_Paulo_State_of_Sao_Paulo.html,Estádio do Morumbi,Arenas e estádios,"Praca Roberto Gomes Pedrosa, 1, São Paulo, Estado de São Paulo 05653-070, Brasil",,,1.6019999999999999,"4,0",51%,30%,13%,4%,2%,True,-23.59815,-46.72024
/Attraction_Review-g303631-d6819253-Reviews-Vila_Butantan-Sao_Paulo_State_of_Sao_Paulo.html,Vila Butantan,Feiras e mercados de pulgas,"Rua Agostinho Cantu 47 | Butantã, São Paulo, Estado de São Paulo 05501-010, Brasil",Dom,11:00 - 21:00,502.0,"4,0",45%,41%,11%,2%,1%,True,-23.57177,-46.7036
/Attraction_Review-g303631-d4971493-Reviews-SESC_Belenzinho-Sao_Paulo_State_of_Sao_Paulo.html,SESC Belenzinho,Pontos de interesse,"Rua Padre Adelino 1.000 | Belenzinho, São Paulo, Estado de São Paulo 03303-000, Brasil",,,1.614,"4,5",65%,30%,3%,1%,1%,True,-23.5448,-46.58785
/Attraction_Review-g303631-d10121916-Reviews-Teatro_Santander-Sao_Paulo_State_of_Sao_Paulo.html,Teatro Santander,Teatros,"Av. Presidente Juscelino Kubitschek, 2041 | Complexo do Shopping JK Iguatemi, São Paulo, Estado de São Paulo 04543-011, Brasil",,,426.0,"4,5",61%,28%,8%,1%,2%,True,0.0,0.0
/Attraction_Review-g303631-d2350343-Reviews-Shopping_Cidade_Jardim-Sao_Paulo_State_of_Sao_Paulo.html,Shopping Cidade Jardim,Shopping centers,"Av. Magalhães de Castro, 12000 – Marginal Pinheiros | Jd Panorama, São Paulo, Estado de São Paulo 05676-900, Brasil",,,858.0,"4,5",61%,30%,6%,1%,2%,True,0.0,0.0
/Attraction_Review-g303631-d2350042-Reviews-Liberdade_street_market-Sao_Paulo_State_of_Sao_Paulo.html,Feira da Liberdade,Feiras e mercados de pulgas,"Praça da Liberdade | Liberdade, São Paulo, Estado de São Paulo 01503-010, Brasil",,,1.0979999999999999,"4,0",38%,45%,14%,2%,1%,True,-23.55547,-46.63593
/Attraction_Review-g303631-d1905422-Reviews-The_Julio_Prestes_Cultural_Center_Sala_Sao_Paulo-Sao_Paulo_State_of_Sao_Paulo.html,O Centro Cultural Júlio Prestes- Sala São Paulo,Centros cívicos,"Praca Julio Prestes 16, São Paulo, Estado de São Paulo 01218-020, Brasil",,,3.27,"5,0",78%,18%,2%,1%,1%,True,-23.53389,-46.641
/Attraction_Review-g303631-d12448544-Reviews-Japan_House_Sao_Paulo-Sao_Paulo_State_of_Sao_Paulo.html,Japan House,Museus de história,"Avenida paulista, 52 | Near Brigadeiro Subway Station, São Paulo, Estado de São Paulo 01310-900, Brasil",Dom,10:00 - 18:00,688.0,"4,5",51%,33%,14%,1%,1%,True,0.0,0.0
/Attraction_Review-g303631-d1905420-Reviews-Afro_Brazil_Museum-Sao_Paulo_State_of_Sao_Paulo.html,Museu Afro Brasil,Museus especializados,"Avenida Pedro Alvares Cabral | Parque Ibirapuera, Portao 10, São Paulo, Estado de São Paulo 04094-050, Brasil",Ter - Dom,10:00 - 18:00,1.209,"4,5",63%,28%,7%,1%,1%,True,0.0,0.0
/Attraction_Review-g303631-d9751056-Reviews-Instituto_Moreira_Salles_IMS_Paulista-Sao_Paulo_State_of_Sao_Paulo.html,Instituto Moreira Salles - IMS Paulista,Museus de arte,"Avenida Paulista, 2424 | Prox. paulista e Metro da Consolação, São Paulo, Estado de São Paulo 01310-300, Brasil",Ter - Qua,10:00 - 20:00,432.0,"4,5",75%,22%,2%,1%,0%,True,0.0,0.0
/Attraction_Review-g303631-d2350357-Reviews-Shopping_Patio_Higienopolis-Sao_Paulo_State_of_Sao_Paulo.html,Shopping Pátio Higienópolis,Shopping centers,"Av. Higienópolis, 618 | Higienópolis, São Paulo, Estado de São Paulo 01238-000, Brasil",,,1.156,"4,5",54%,39%,5%,1%,1%,True,-23.54248,-46.6587
/Attraction_Review-g303631-d553566-Reviews-Catedral_da_Se_de_Sao_Paulo-Sao_Paulo_State_of_Sao_Paulo.html,Catedral da Sé de São Paulo,Igrejas e catedrais,"Praça da Sé, São Paulo, Estado de São Paulo 01001-000, Brasil",Dom - Sáb,09:00 - 17:00,7.904,"4,5",50%,34%,13%,2%,1%,True,-23.55083,-46.63391
/Attraction_Review-g303631-d2350050-Reviews-Praca_Benedito_Calixto-Sao_Paulo_State_of_Sao_Paulo.html,Praca Benedito Calixto,Feiras e mercados de pulgas,"Praca Benedito Calixto S/N | Pinheiros, São Paulo, Estado de São Paulo 05406-040, Brasil",,,789.0,"4,5",46%,42%,10%,1%,1%,True,-23.55878,-46.68063
/Attraction_Review-g303631-d2350338-Reviews-SESC_Pompeia-Sao_Paulo_State_of_Sao_Paulo.html,SESC Pompéia,Teatros,"Rua Clélia, 93 | Pompéia, São Paulo, Estado de São Paulo 05042-000, Brasil",Dom,08:00 - 18:00,1.0979999999999999,"4,5",58%,37%,3%,1%,1%,True,-23.5256,-46.68181
/Attraction_Review-g303631-d2350133-Reviews-Gallery_of_Rock-Sao_Paulo_State_of_Sao_Paulo.html,Galeria do Rock,Shopping centers,"Avenida Sao Joao 439 | Ganhou O Nome De Galeria Do Rock No Ano De 1994, São Paulo, Estado de São Paulo 01035-000, Brasil",,,1.043,"4,0",39%,43%,16%,1%,1%,True,0.0,0.0
/Attraction_Review-g303631-d555148-Reviews-Paroquia_Nossa_Senhora_do_Brasil-Sao_Paulo_State_of_Sao_Paulo.html,Paróquia Nossa Senhora do Brasil,Obras arquitetônicas,"Praça N. Sra. do Brasil, s/n, São Paulo, Estado de São Paulo 30829-786, Brasil",Dom,08:00 - 20:00,1.126,"4,5",69%,24%,5%,1%,1%,True,-23.5313,-46.53146
/Attraction_Review-g303631-d317851-Reviews-Copan_Building-Sao_Paulo_State_of_Sao_Paulo.html,Edifício Copan,Obras arquitetônicas,"Av. Ipiranga, 200 - República, São Paulo, Estado de São Paulo 01046-925, Brasil",,,442.0,"4,0",40%,45%,12%,2%,1%,True,-23.54306,-46.64114
/Attraction_Review-g303631-d9724022-Reviews-Rua_Oscar_Freire_Shopping_Street-Sao_Paulo_State_of_Sao_Paulo.html,Rua Oscar Freire Shopping Street,Pontos de interesse,"Rua Oscar Freire, São Paulo, Estado de São Paulo, Brasil",,,496.0,"4,5",50%,37%,11%,1%,1%,True,-23.56141,-46.67093
/Attraction_Review-g303631-d2350311-Reviews-Parque_Da_Agua_Branca-Sao_Paulo_State_of_Sao_Paulo.html,Parque Da Água Branca,Parques,"Av. Francisco Matarazzo, 455 | Água Branca, São Paulo, Estado de São Paulo 05001-900, Brasil",,,1.054,"4,0",40%,46%,12%,1%,1%,True,-23.52969,-46.6678
/Attraction_Review-g303631-d4377475-Reviews-Museum_of_Zoology_of_the_University_of_Sao_Paulo-Sao_Paulo_State_of_Sao_Paulo.html,Museu de Zoologia da Universidade de São Paulo,Museus de ciência,"Avenida Nazaré, 481 | Ipiranga, São Paulo, Estado de São Paulo 04263-000, Brasil",Qua - Dom,10:00 - 17:00,211.0,"4,5",55%,37%,7%,1%,0%,True,-23.58854,-46.61057
/Attraction_Review-g303631-d2350315-Reviews-Parque_da_Independencia-Sao_Paulo_State_of_Sao_Paulo.html,Parque da Independência,Parques,"Av. Nazaré, s/n | Ipiranga, São Paulo, Estado de São Paulo 04263-200, Brasil",Dom - Sáb,05:00 - 20:00,1.368,"4,5",53%,37%,8%,1%,1%,True,-23.59153,-46.61026
/Attraction_Review-g303631-d4328250-Reviews-Museum_of_Contemporary_Art-Sao_Paulo_State_of_Sao_Paulo.html,Museu de Arte Contemporânea,Museus especializados,"Avenida Pedro Álvares Cabral, 1301 | Universidade de São Paulo - Ibirapuera, São Paulo, Estado de São Paulo 04094-050, Brasil",Ter - Dom,10:00 - 18:00,720.0,"4,5",58%,34%,6%,1%,1%,True,0.0,0.0
/Attraction_Review-g303631-d2349931-Reviews-Autodromo_Jose_Carlos_Pace-Sao_Paulo_State_of_Sao_Paulo.html,Autódromo José Carlos Pace,Autódromos,"Avenida Senador Teotonio Vilela 261 | Interlagos, São Paulo, Estado de São Paulo 04801-010, Brasil",Seg - Sex,08:00 - 17:00,860.0,"4,5",48%,38%,12%,1%,1%,True,-23.70129,-46.70139
/Attraction_Review-g303631-d2350303-Reviews-Burle_Marx_Park-Sao_Paulo_State_of_Sao_Paulo.html,Parque Burle Marx,Parques,"Av. Dona Helena Pereira de Moraes, 200 | Estacionamento logo após saída da Marginal Pinheiros sentido Interlagos., São Paulo, Estado de São Paulo 05707-400, Brasil",Dom - Sáb,07:00 - 19:00,403.0,"4,5",47%,40%,11%,1%,1%,True,0.0,0.0
/Attraction_Review-g303631-d2350288-Reviews-Oca_do_Ibirapuera-Sao_Paulo_State_of_Sao_Paulo.html,Oca do Ibirapuera,Obras arquitetônicas,"Av. Pedro Álvares Cabral- Portão 3 | Moema, Parque Ibirapuera, São Paulo, Estado de São Paulo, Brasil",,,459.0,"4,5",51%,39%,8%,1%,1%,True,0.0,0.0
/Attraction_Review-g303631-d311972-Reviews-Pateo_do_Collegio-Sao_Paulo_State_of_Sao_Paulo.html,Pateo do Collegio,Obras arquitetônicas,"Praça Pátio do Colégio, 02 | Centro, São Paulo, Estado de São Paulo 01016-040, Brasil",Ter - Sex,09:00 - 16:45,938.0,"4,0",41%,43%,14%,1%,1%,True,-23.54896,-46.63327
/Attraction_Review-g303631-d2703936-Reviews-Augusta_Street-Sao_Paulo_State_of_Sao_Paulo.html,Rua Augusta,Bairros,"Rua Augusta | Da Avenida Paulista até a Praça Roosevelt, São Paulo, Estado de São Paulo, Brasil",,,1.115,"4,0",42%,39%,15%,3%,1%,True,-23.48747,-46.57462
/Attraction_Review-g303631-d8035659-Reviews-Shopping_Cidade_Sao_Paulo-Sao_Paulo_State_of_Sao_Paulo.html,Shopping Cidade São Paulo,Shopping centers,"Avenida Paulista 1230 | Bela Vista, São Paulo, Estado de São Paulo 01310-100, Brasil",,,928.0,"4,0",34%,47%,17%,1%,1%,False,-23.56391,-46.65351
/Attraction_Review-g303631-d4023283-Reviews-Bradesco_Theatre-Sao_Paulo_State_of_Sao_Paulo.html,Teatro Bradesco,Teatros,"Rua Turiassu, 2100 - 3° Piso | Bourbon Shopping, São Paulo, Estado de São Paulo 05005-000, Brasil",,,800.0,"4,5",64%,32%,2%,1%,1%,True,-23.53276,-46.67056
/Attraction_Review-g303631-d9883316-Reviews-Expo_Center_Norte-Sao_Paulo_State_of_Sao_Paulo.html,Expo Center Norte,,"Rua José Bernardo Pinto, 333 | Vila Guilherme, São Paulo, Estado de São Paulo 02055-000, Brasil",,,229.0,"4,5",47%,40%,10%,2%,1%,True,-23.5136,-46.6092
/Attraction_Review-g303631-d311970-Reviews-Museu_De_Arte_Sacra_De_Sao_Paulo-Sao_Paulo_State_of_Sao_Paulo.html,Museu De Arte Sacra De São Paulo,Museus especializados,"Avenida Tiradentes, 676 | Luz, São Paulo, Estado de São Paulo 01102-000, Brasil",Ter - Sex,09:00 - 17:00,718.0,"4,5",61%,32%,6%,1%,0%,True,-23.53491,-46.63369
/Attraction_Review-g303631-d2350017-Reviews-Estacao_da_Luz-Sao_Paulo_State_of_Sao_Paulo.html,Estação da Luz,Obras arquitetônicas,"Praça da Luz, 1 | Luz, São Paulo, Estado de São Paulo 01120-010, Brasil",,,1.895,"4,0",35%,46%,16%,2%,1%,True,-23.53495,-46.63377
/Attraction_Review-g303631-d7620286-Reviews-Shopping_Vila_Olimpia-Sao_Paulo_State_of_Sao_Paulo.html,Shopping Vila Olímpia,Shopping centers,"Rua Olimpíadas, 360 | Vila Olímpia, São Paulo, Estado de São Paulo 04551-000, Brasil",Dom,14:00 - 20:00,478.0,"4,0",33%,54%,11%,1%,1%,True,-23.59579,-46.68646
/Attraction_Review-g303631-d321327-Reviews-Hotel_Unique-Sao_Paulo_State_of_Sao_Paulo.html,Hotel Unique,Obras arquitetônicas,"Avenida Brigadeiro Luis Antonio 4700 | Jardim Paulista, São Paulo, Estado de São Paulo 01402-002, Brasil",,,2.059,"4,5",68%,27%,3%,1%,1%,True,0.0,0.0
/Attraction_Review-g303631-d4127407-Reviews-Teatro_Alfa-Sao_Paulo_State_of_Sao_Paulo.html,Teatro Alfa,Teatros,"Rua Bento Franco de Andrade Filho, 772 | Santo Amaro, São Paulo, Estado de São Paulo 04757-000, Brasil",,,321.0,"4,5",55%,41%,3%,0%,1%,True,0.0,0.0
/Attraction_Review-g303631-d317827-Reviews-Edificio_Martinelli-Sao_Paulo_State_of_Sao_Paulo.html,Edifício Martinelli,Obras arquitetônicas,"Avenida São João 35 | R. São Bento, 405, São Paulo, Estado de São Paulo 01010-001, Brasil",Dom - Sáb,11:00 - 19:30,891.0,"4,5",56%,34%,8%,1%,1%,True,-27.70497,-52.42162
/Attraction_Review-g303631-d6922202-Reviews-Sao_Paulo_Expo_Exhibition_Convention_Center-Sao_Paulo_State_of_Sao_Paulo.html,São Paulo Expo Exhibition & Convention Center,,"Rodovia dos Imigrantes Km 1,5 1500 | Água Funda, São Paulo, Estado de São Paulo 04329-900, Brasil",,,369.0,"4,0",37%,48%,12%,1%,2%,True,-23.65043,-46.6332
/Attraction_Review-g303631-d4126672-Reviews-Shopping_Analia_Franco-Sao_Paulo_State_of_Sao_Paulo.html,Shopping Anália Franco,Shopping centers,"Avenida Regente Feijó, 1739, São Paulo, Estado de São Paulo 03342-900, Brasil",Dom,14:00 - 20:00,499.0,"4,5",49%,41%,7%,1%,2%,True,-23.56258,-46.5594
/Attraction_Review-g303631-d2350168-Reviews-Florestal_Orchard_of_Sao_Paulo-Sao_Paulo_State_of_Sao_Paulo.html,Horto Florestal,Parques,"Rua do Horto, 931 | Tremembé, São Paulo, Estado de São Paulo 02377-000, Brasil",,,668.0,"4,5",51%,37%,10%,1%,1%,True,-23.46073,-46.62774
/Attraction_Review-g303631-d313789-Reviews-Parque_Estadual_da_Cantareira-Sao_Paulo_State_of_Sao_Paulo.html,Parque Estadual da Cantareira,Parques públicos,"Rua do Horto 1799 | Horto Florestal, São Paulo, Estado de São Paulo 02377-000, Brasil",,,355.0,"4,5",56%,37%,5%,1%,1%,True,-23.1721,-46.89712
/Attraction_Review-g303631-d8322699-Reviews-Santuario_Mae_de_Deus-Sao_Paulo_State_of_Sao_Paulo.html,Santuário Mãe de Deus,Locais religiosos e sagrados,"Av. Interlagos, São Paulo, Estado de São Paulo 04661-300, Brasil",Dom,10:00 - 12:00,82.0,"5,0",84%,14%,2%,0%,0%,False,-23.67809,-46.68407
/Attraction_Review-g303631-d2350036-Reviews-Pacaembu_Stadium-Sao_Paulo_State_of_Sao_Paulo.html,Estádio do Pacaembu,Arenas e estádios,"Praça Charles Miller, s/n | Pacaembu, São Paulo, Estado de São Paulo 01234-900, Brasil",,,953.0,"4,0",39%,45%,14%,1%,1%,True,-23.54345,-46.66539
/Attraction_Review-g303631-d10460516-Reviews-Museu_do_Ipiranga-Sao_Paulo_State_of_Sao_Paulo.html,Museu do Ipiranga,Museus de história,"Parque da Independência, Ipiranga, São Paulo, São Paulo, Estado de São Paulo, Brasil",,,211.0,"4,0",52%,32%,11%,2%,3%,True,-22.85528,-43.77425
/Attraction_Review-g303631-d317780-Reviews-Ibirapuera_Planetarium-Sao_Paulo_State_of_Sao_Paulo.html,Planetário do Ibirapuera,Observatórios e planetários,"Gate 10 | Av. Pedro Alvares Cabral, São Paulo, Estado de São Paulo 04094-050, Brasil",Dom,13:00 - 19:00,313.0,"4,0",51%,34%,8%,3%,4%,True,-23.58067,-46.6604
/Attraction_Review-g303631-d3915977-Reviews-Parque_Estadual_do_Jaragua-Sao_Paulo_State_of_Sao_Paulo.html,Parque Estadual do Jaragua,Parques públicos,"Rua Antonio Cardoso Nogueira 539 | Vila Chica Luiza, São Paulo, Estado de São Paulo 05184-000, Brasil",Dom - Sáb,07:00 - 17:00,173.0,"4,5",38%,51%,10%,0%,1%,False,0.0,0.0
/Attraction_Review-g303631-d2349919-Reviews-Ibirapuera_Auditorium-Sao_Paulo_State_of_Sao_Paulo.html,Auditório Ibirapuera,,"Av. Pedro Álvares Cabral, s/n - Portão 3, São Paulo, Estado de São Paulo 04094-050, Brasil",Dom,09:00 - 20:00,1.143,"4,5",67%,27%,4%,1%,1%,True,-23.5858,-46.65562
/Attraction_Review-g303631-d532237-Reviews-Tenente_Siqueira_Campos_Park_Trianon-Sao_Paulo_State_of_Sao_Paulo.html,Parque Tenente Siqueira Campos (Trianon),Parques,"Rua Peixoto Gomide, 949 | Cerqueira Cesar, São Paulo, Estado de São Paulo 01409-001, Brasil",,,803.0,"4,0",39%,46%,12%,2%,1%,True,-23.56171,-46.65781
/Attraction_Review-g303631-d4377482-Reviews-Museum_Theatro_Municipal_of_Sao_Paulo-Sao_Paulo_State_of_Sao_Paulo.html,Museu do Teatro Municipal de São Paulo,Cabarés,"Praca Ramos de Azevedo | Viaduto Do Chá, São Paulo, Estado de São Paulo 01037-010, Brasil",,,783.0,"4,5",68%,24%,6%,1%,1%,True,-23.5451,-46.63807
/Attraction_Review-g303631-d2349939-Reviews-Mario_de_Andrade_Library-Sao_Paulo_State_of_Sao_Paulo.html,Biblioteca Mário de Andrade,Bibliotecas,"Rua da Consolação, 94 | República, São Paulo, Estado de São Paulo 01302-000, Brasil",Seg - Sex,08:30 - 20:30,230.0,"4,5",58%,36%,5%,1%,0%,True,-23.5479,-46.64172
/Attraction_Review-g303631-d12033710-Reviews-Museu_da_Imaginacao-Sao_Paulo_State_of_Sao_Paulo.html,Museu da Imaginação,Museus infantis,"Rua Ricardo Cavatton, 251 - Lapa de Baixo | Próximo à Polícia Federal, São Paulo, Estado de São Paulo 05038-110, Brasil",Ter - Sex,10:00 - 17:00,140.0,"4,0",41%,27%,24%,7%,1%,False,0.0,0.0
/Attraction_Review-g303631-d6592598-Reviews-Parque_do_Carmo-Sao_Paulo_State_of_Sao_Paulo.html,Parque do Carmo,Parques,"Avenida Afonso de Sampaio e Sousa 951 | Itaquera, São Paulo, Estado de São Paulo 08275-025, Brasil",,,430.0,"4,0",40%,44%,12%,3%,1%,False,-23.56695,-46.46815
/Attraction_Review-g303631-d2350252-Reviews-Museum_of_the_Japanese_Immigration-Sao_Paulo_State_of_Sao_Paulo.html,Museu Histórico da Imigração Japonesa,Museus especializados,"Rua São Joaquim, 381 | Liberdade, São Paulo, Estado de São Paulo 01508-900, Brasil",,,151.0,"4,5",54%,37%,9%,0%,0%,True,-23.56158,-46.63612
/Attraction_Review-g303631-d2350336-Reviews-Shopping_25_de_Marco-Sao_Paulo_State_of_Sao_Paulo.html,Shopping 25 de Março,Shopping centers,"Rua 25 de Março, nº 1081, São Paulo, Estado de São Paulo 01021-200, Brasil",Seg - Sáb,11:00 - 16:00,2.6,"4,0",28%,42%,25%,4%,1%,False,-23.5436,-46.63254
/Attraction_Review-g303631-d2350174-Reviews-Santuario_e_Convento_Sao_Francisco_de_Assis-Sao_Paulo_State_of_Sao_Paulo.html,Santuário e Convento São Francisco de Assis,Igrejas e catedrais,"Largo de São Francisco, 133, São Paulo, Estado de São Paulo 01005-010, Brasil",Dom - Sáb,07:00 - 19:00,659.0,"4,5",58%,34%,7%,1%,0%,True,-23.54959,-46.63717
/Attraction_Review-g303631-d3387060-Reviews-Parque_da_Aclimacao-Sao_Paulo_State_of_Sao_Paulo.html,Parque da Aclimação,Parques,"Rua Muniz de Sousa, São Paulo, Estado de São Paulo, Brasil",,,490.0,"4,0",35%,50%,12%,2%,1%,True,-23.56907,-46.62693
/Attraction_Review-g303631-d17353719-Reviews-Parque_Helena-Sao_Paulo_State_of_Sao_Paulo.html,Parque Helena,Parques públicos,"Rua Kumaki Aoki 1390 | Jd helena, São Paulo, Estado de São Paulo 08090-370, Brasil",,,101.0,"5,0",90%,4%,4%,1%,1%,False,-23.47955,-46.42271
/Attraction_Review-g303631-d317775-Reviews-Praca_da_Liberdade-Sao_Paulo_State_of_Sao_Paulo.html,Praça da Liberdade,Pontos de interesse,"Praca da Liberdade 133, São Paulo, Estado de São Paulo 01503-010, Brasil",,,678.0,"4,0",38%,43%,17%,1%,1%,True,-23.55547,-46.63593
/Attraction_Review-g303631-d2350209-Reviews-Memorial_da_Resistencia_of_Sao_Paulo-Sao_Paulo_State_of_Sao_Paulo.html,Memorial da Resistência of São Paulo,Museus especializados,"Largo General Osorio 66 | Luz, São Paulo, Estado de São Paulo 01213-010, Brasil",,,248.0,"4,5",67%,25%,6%,1%,1%,True,-23.53506,-46.6392
/Attraction_Review-g303631-d6373219-Reviews-Museu_do_Instituto_Biologico-Sao_Paulo_State_of_Sao_Paulo.html,Museu do Instituto Biologico,Museus de ciência,"Avenida Doutor Dante Pazzanese 64 | Vila Mariana, São Paulo, Estado de São Paulo 04012-180, Brasil",,,85.0,"4,5",38%,58%,4%,0%,0%,False,-23.58611,-46.64779
/Attraction_Review-g303631-d10430724-Reviews-SESC_Pinheiros-Sao_Paulo_State_of_Sao_Paulo.html,SESC Pinheiros,Teatros,"Rua Paes Leme, 195, São Paulo, Estado de São Paulo 05424-150, Brasil",,,143.0,"4,5",66%,31%,1%,1%,1%,True,-23.56764,-46.69928
/Attraction_Review-g303631-d532227-Reviews-Casa_das_Rosas_Espaco_Haroldo_de_Campos_de_Poesia_e_Literatura-Sao_Paulo_State_of_.html,Casa das Rosas - Espaço Haroldo de Campos de Poesia e Literatura,Museus especializados,"Avenida Paulista 37 | Perto da estação de metro Brigadeiro, São Paulo, Estado de São Paulo 01311-902, Brasil",Dom,10:00 - 18:00,921.0,"4,0",38%,45%,14%,2%,1%,True,0.0,0.0
/Attraction_Review-g303631-d2350202-Reviews-Jockey_Club-Sao_Paulo_State_of_Sao_Paulo.html,Jockey Club,Hipódromos,"Avenida Lineu de Paula Machado, 1263 | Cidade Jardim, São Paulo, Estado de São Paulo 05601-001, Brasil",,,236.0,"4,0",43%,40%,12%,3%,2%,False,0.0,0.0
/Attraction_Review-g303631-d7104709-Reviews-Zoo_Safari-Sao_Paulo_State_of_Sao_Paulo.html,Zoo Safari,Zoológicos,"Avenida do Cursino 6338 | Vila Moraes, São Paulo, Estado de São Paulo 04169-000, Brasil",Ter - Dom,09:00 - 16:00,596.0,"4,0",26%,41%,22%,8%,3%,False,-23.63088,-46.61768
/Attraction_Review-g303631-d311965-Reviews-Latin_America_Memorial-Sao_Paulo_State_of_Sao_Paulo.html,Memorial da América Latina,Museus especializados,"Avenida Auro Soares de Moura Andrade 664 | Barra Funda, São Paulo, Estado de São Paulo 01156-001, Brasil",,,806.0,"4,0",39%,42%,16%,2%,1%,True,0.0,0.0
/Attraction_Review-g303631-d2350102-Reviews-Foundation_Maria_Luiza_and_Oscar_Americano-Sao_Paulo_State_of_Sao_Paulo.html,Fundação Maria Luisa e Oscar Americano,Museus de arte,"Av. Morumbi, 4077 | Morumbi, São Paulo, Estado de São Paulo 05650-000, Brasil",,,322.0,"4,5",55%,34%,8%,2%,1%,True,-23.60118,-46.70972
/Attraction_Review-g303631-d4586334-Reviews-Paroquia_Nossa_Senhora_Achiropita-Sao_Paulo_State_of_Sao_Paulo.html,Paróquia Nossa Senhora Achiropita,Pontos de interesse,"Rua Treze de Maio 478, São Paulo, Estado de São Paulo 01327-000, Brasil",,,131.0,"4,0",39%,45%,15%,1%,0%,True,-23.56185,-46.64584
/Attraction_Review-g303631-d3982174-Reviews-Fazendinha_Estacao_Natureza-Sao_Paulo_State_of_Sao_Paulo.html,Fazendinha Estação Natureza,Fazendas,"Avenida Washington Luis 4221 | Brooklin, São Paulo, Estado de São Paulo 04627-001, Brasil",,,158.0,"4,0",34%,50%,12%,4%,0%,False,-23.63036,-46.66847
/Attraction_Review-g303631-d8155260-Reviews-Teatro_Porto_Seguro-Sao_Paulo_State_of_Sao_Paulo.html,Teatro Porto Seguro,Teatros,"Alameda Barao de Piracicaba 740, São Paulo, Estado de São Paulo 01216-012, Brasil",,,255.0,"5,0",80%,18%,1%,1%,0%,True,-23.5304,-46.6457
/Attraction_Review-g303631-d2350282-Reviews-Obelisco_do_Ibirapuera-Sao_Paulo_State_of_Sao_Paulo.html,Obelisco do Ibirapuera,Monumentos e estátuas,"Avenida Pedro Álvares Cabral | Moema, São Paulo, Estado de São Paulo 04094-050, Brasil",,,248.0,"4,0",33%,39%,23%,4%,1%,True,-23.5858,-46.65562
/Attraction_Review-g303631-d2349948-Reviews-The_Glass_House-Sao_Paulo_State_of_Sao_Paulo.html,Casa de Vidro,Obras arquitetônicas,"Rua General Almério De Moura, 200 | Morumbi, São Paulo, Estado de São Paulo 05690-080, Brasil",,,59.0,"4,5",57%,33%,8%,1%,1%,False,-23.61334,-46.71196
/Attraction_Review-g303631-d1724606-Reviews-Senna_s_Grave_Morumbi_Cemetery-Sao_Paulo_State_of_Sao_Paulo.html,Túmulo De Ayrton Senna,Cemitérios,"Rua Deputado Laercio Corte 468 | Morumbi, São Paulo, Estado de São Paulo 05706-290, Brasil",,,79.0,"4,0",51%,31%,15%,1%,2%,False,-23.62482,-46.72519
/Attraction_Review-g303631-d2350274-Reviews-Museu_dos_Transportes-Sao_Paulo_State_of_Sao_Paulo.html,Museu dos Transportes,Museus especializados,"Av. Cruzeiro do Sul, 780 | Canindé, São Paulo, Estado de São Paulo 03033-020, Brasil",Ter - Dom,09:00 - 17:00,80.0,"4,0",36%,49%,12%,1%,2%,False,-23.52575,-46.62527
/Attraction_Review-g303631-d2350022-Reviews-Estacao_Pinacoteca-Sao_Paulo_State_of_Sao_Paulo.html,Estação Pinacoteca,Museus de arte,"Largo General Osório, 66, São Paulo, Estado de São Paulo 01213-010, Brasil",Ter - Qua,10:00 - 17:30,1.844,"4,5",61%,31%,6%,1%,1%,True,-23.53506,-46.6392
/Attraction_Review-g303631-d4127417-Reviews-UnimedHall-Sao_Paulo_State_of_Sao_Paulo.html,UnimedHall,Teatros,"Avenida das Nações Unidas, 17955, São Paulo, Estado de São Paulo 04795-100, Brasil",,,556.0,"4,0",39%,36%,15%,5%,5%,False,-23.63647,-46.71972
/Attraction_Review-g303631-d8343135-Reviews-Conjunto_Nacional-Sao_Paulo_State_of_Sao_Paulo.html,Conjunto Nacional,Shopping centers,"Avenida Paulista 2073 | Bela Vista, São Paulo, Estado de São Paulo 01311-940, Brasil",,,351.0,"4,0",36%,49%,13%,1%,1%,True,-23.56558,-46.65143
/Attraction_Review-g303631-d11918796-Reviews-Faculdade_de_Direito_da_USP-Sao_Paulo_State_of_Sao_Paulo.html,Faculdade de Direito da USP,Locais históricos,"Rua Largo São Francisco, 95, São Paulo, Estado de São Paulo 01005-010, Brasil",,,246.0,"4,5",65%,26%,7%,1%,1%,True,-23.47966,-46.56904
/Attraction_Review-g303631-d13003753-Reviews-Impulso_Park-Sao_Paulo_State_of_Sao_Paulo.html,Impulso Park,Parques temáticos,"Rua Alfredo de Castro 160, São Paulo, Estado de São Paulo 01155-060, Brasil",,,70.0,"4,0",49%,30%,7%,10%,4%,True,-23.5289,-46.66466
/Attraction_Review-g303631-d8387588-Reviews-Teatro_Frei_Caneca-Sao_Paulo_State_of_Sao_Paulo.html,Teatro Frei Caneca,Teatros,"Rua Frei Caneca 569 | Consolação, São Paulo, Estado de São Paulo 01307-001, Brasil",,,152.0,"4,5",48%,42%,8%,1%,1%,True,-23.55413,-46.65403
/Attraction_Review-g303631-d8628181-Reviews-Mirante_9_de_Julho-Sao_Paulo_State_of_Sao_Paulo.html,Mirante 9 de Julho,Pontos de interesse,"Rua Carlos Comenale, São Paulo, Estado de São Paulo 01332-030, Brasil",Ter - Dom,10:00 - 22:00,314.0,"4,0",37%,40%,17%,4%,2%,False,-23.56108,-46.65543
/Attraction_Review-g303631-d12213926-Reviews-Shopping_Morumbi_Town-Sao_Paulo_State_of_Sao_Paulo.html,Shopping Morumbi Town,Shopping centers,"Av. Giovanni Gronchi, 5930 | Vila Andrade, São Paulo, Estado de São Paulo 05724-002, Brasil",Dom,14:00 - 22:00,98.0,"4,0",31%,52%,13%,3%,1%,True,-23.63272,-46.73701
/Attraction_Review-g303631-d13482812-Reviews-Jardim_Pamplona_Shopping-Sao_Paulo_State_of_Sao_Paulo.html,Jardim Pamplona Shopping,Lojas de departamento,"Rua Pamplona 1704 | Perto Da Rua Estados Unidos, São Paulo, Estado de São Paulo 01405-002, Brasil",,,46.0,"4,0",45%,34%,21%,0%,0%,True,-23.56977,-46.65981
/Attraction_Review-g303631-d8775292-Reviews-SESC_Itaquera-Sao_Paulo_State_of_Sao_Paulo.html,SESC Itaquera,Centros cívicos,"Avenida Fernando do Espírito Santo Alves de Mattos, 1000, São Paulo, Estado de São Paulo 08265-045, Brasil",,,99.0,"4,5",59%,30%,9%,1%,1%,False,0.0,0.0
/Attraction_Review-g303631-d317777-Reviews-Praca_da_Republica-Sao_Paulo_State_of_Sao_Paulo.html,Praça da República,Pontos de interesse,"São Paulo, Estado de São Paulo 01045-903, Brasil",,,718.0,"3,5",15%,29%,40%,14%,2%,False,-4.29206,-41.77369
/Attraction_Review-g303631-d14101728-Reviews-Parque_Jacui-Sao_Paulo_State_of_Sao_Paulo.html,Parque Vila Jacuí,Parques públicos,"Rua Catléia, 911 | São Miguel, São Paulo, Estado de São Paulo 08071-100, Brasil",,,112.0,"5,0",91%,8%,1%,0%,0%,False,-23.48786,-46.455
/Attraction_Review-g303631-d5226404-Reviews-Cemiterio_da_Consolacao-Sao_Paulo_State_of_Sao_Paulo.html,Cemitério da Consolação,Cemitérios,"Rua da Consolacao 1660, São Paulo, Estado de São Paulo 01302-001, Brasil",Dom - Sáb,09:00 - 17:00,106.0,"4,0",44%,40%,15%,1%,0%,False,-23.55164,-46.65744
/Attraction_Review-g303631-d2350332-Reviews-Sunset_Square-Sao_Paulo_State_of_Sao_Paulo.html,Praça Pôr Do Sol,Pontos de interesse,"Praça Cel. Custódio Fernandes Pinheiro | Alto de Pinheiros, São Paulo, Estado de São Paulo 03178-200, Brasil",,,352.0,"4,0",40%,36%,19%,4%,1%,False,0.0,0.0
/Attraction_Review-g303631-d7757416-Reviews-Borboletario_Aguias_da_Serra-Sao_Paulo_State_of_Sao_Paulo.html,Borboletário Águias da Serra,Trilhas para caminhada,"Estrada da Ponte Alta, 4300 | Parque Estadual da Serra do Mar, São Paulo, Estado de São Paulo 04891-270, Brasil",Dom,22:00 - 23:00,94.0,"4,5",62%,23%,9%,2%,4%,False,0.0,0.0
/Attraction_Review-g303631-d4093482-Reviews-Renaissance_Theatre-Sao_Paulo_State_of_Sao_Paulo.html,Teatro Renaissance,Teatros,"Alameda Santos 2233 | Jardins, São Paulo, Estado de São Paulo 01419-101, Brasil",,,223.0,"4,5",55%,37%,7%,1%,0%,False,-23.55866,-46.66156
/Attraction_Review-g303631-d4328238-Reviews-Museum_of_Contemporary_Art_MAC_USP_Ibirapuera-Sao_Paulo_State_of_Sao_Paulo.html,Museu de Arte Contemporânea - MAC USP Ibirapuera,Museus especializados,"Passarela Ciccillo Matarazzo 3 Piso | Parque Ibirapuera, São Paulo, Estado de São Paulo 04094-010, Brasil",Dom - Sáb,05:00 - 00:00,93.0,"4,5",56%,34%,7%,2%,1%,False,0.0,0.0
/Attraction_Review-g303631-d2349969-Reviews-Orthodox_Cathedral-Sao_Paulo_State_of_Sao_Paulo.html,Catedral Ortodoxa,Obras arquitetônicas,"Rua Vergueiro, 1515 | Paraíso, São Paulo, Estado de São Paulo 04101-000, Brasil",,,136.0,"4,5",52%,41%,7%,0%,0%,False,-23.57361,-46.64035
/Attraction_Review-g303631-d6117088-Reviews-WTC_Events_Center-Sao_Paulo_State_of_Sao_Paulo.html,WTC Events Center,Outro,"Avenida das Nacoes Unidas 12551 | Brooklin Novo, São Paulo, Estado de São Paulo 04578-903, Brasil",,,129.0,"4,5",51%,39%,7%,3%,0%,False,-23.60548,-46.69657
/Attraction_Review-g303631-d4127632-Reviews-SESC_Avenida_Paulista_Espaco_10_o_andar_Theater-Sao_Paulo_State_of_Sao_Paulo.html,Teatro SESC - Avenida Paulista - Espaço 10.o andar,Teatros,"Avenida Paulista 119 | Bela Vista, São Paulo, Estado de São Paulo 01311-903, Brasil",,,49.0,"4,5",62%,32%,4%,2%,0%,True,-23.56558,-46.65143
/Attraction_Review-g303631-d4584452-Reviews-Alfredo_Volpi_Park-Sao_Paulo_State_of_Sao_Paulo.html,Parque Alfredo Volpi,Parques,"Rua Engenheiro Oscar Americano 480, São Paulo, Estado de São Paulo 05673-050, Brasil",,,92.0,"4,5",41%,52%,7%,0%,0%,False,-23.59209,-46.70422
/Attraction_Review-g303631-d6510191-Reviews-Feira_Kantuta-Sao_Paulo_State_of_Sao_Paulo.html,Feira Kantuta,Feiras e mercados de pulgas,"Rua Pedro Vicente, 600 | Canindé, São Paulo, Estado de São Paulo 01109-010, Brasil",Dom,12:00 - 19:00,57.0,"4,0",28%,47%,15%,3%,7%,False,-23.52549,-46.6232
/Attraction_Review-g303631-d10530402-Reviews-Sambodromo_Anhembi-Sao_Paulo_State_of_Sao_Paulo.html,Sambódromo Anhembí,Pontos de interesse,"Avenida Olavo Fontoura 1209 | ao lado do Pavilhão de exposições do parque Anhembi, São Paulo, Estado de São Paulo 02012-021, Brasil",,,60.0,"4,0",33%,36%,25%,3%,3%,False,0.0,0.0
/Attraction_Review-g303631-d2350347-Reviews-Shopping_Frei_Caneca-Sao_Paulo_State_of_Sao_Paulo.html,Shopping Frei Caneca,Shopping centers,"Rua Frei Caneca, 569 | Consolação, São Paulo, Estado de São Paulo 01307-001, Brasil",Dom,14:00 - 20:00,675.0,"4,0",24%,49%,24%,2%,1%,False,-23.55413,-46.65403
/Attraction_Review-g303631-d10228715-Reviews-Bradesco_Theater-Sao_Paulo_State_of_Sao_Paulo.html,Teatro Bradesco,Teatros,"Rua Palestra Itália, 500, São Paulo, Estado de São Paulo, Brasil",,,36.0,"5,0",87%,13%,0%,0%,0%,False,-23.52789,-46.68035
/Attraction_Review-g303631-d9812256-Reviews-Minhocao-Sao_Paulo_State_of_Sao_Paulo.html,Minhocão,Pontos de interesse,"São Paulo, Estado de São Paulo 01221-000, Brasil",,,61.0,"4,0",32%,52%,14%,1%,1%,False,-23.20497,-47.30416
/Attraction_Review-g303631-d2350058-Reviews-CEAGESP_Companhia_de_Entrepostos_e_Armazens_Gerais_de_Sao_Paulo-Sao_Paulo_State_o.html,CEAGESP - Companhia de Entrepostos e Armazéns Gerais de São Paulo,Feiras e mercados de pulgas,"Av. Dr. Gastão Vidigal, 1946 | Vila Leopoldina, São Paulo, Estado de São Paulo 05316-900, Brasil",Dom - Sáb,00:00 - 23:59,162.0,"4,5",48%,40%,8%,1%,3%,True,-23.53382,-46.73477
/Attraction_Review-g303631-d2350046-Reviews-Feira_de_Antiguidades_da_Paulista-Sao_Paulo_State_of_Sao_Paulo.html,Feira de Antiguidades da Paulista,Antiquários,"Jardim Paulista, São Paulo, Estado de São Paulo 04002-010, Brasil",Ter - Qua,10:00 - 18:00,464.0,"4,0",31%,47%,20%,1%,1%,False,-23.57371,-46.66087
/Attraction_Review-g303631-d7300089-Reviews-Igreja_Nossa_Senhora_da_Consolacao-Sao_Paulo_State_of_Sao_Paulo.html,Igreja Nossa Senhora da Consolação,Igrejas e catedrais,"Rua da Consolacao 585, São Paulo, Estado de São Paulo 01301-000, Brasil",,,97.0,"4,5",65%,27%,7%,1%,0%,True,-23.54742,-46.64669
/Attraction_Review-g303631-d4221235-Reviews-Shopping_Light-Sao_Paulo_State_of_Sao_Paulo.html,Shopping Light,Shopping centers,"Rua Coronel Xavier de Toledo, 23 | Estacionamento: Rua Formosa. 157, São Paulo, Estado de São Paulo 01048-000, Brasil",Dom,12:00 - 18:00,327.0,"3,5",18%,39%,34%,8%,1%,False,0.0,0.0
/Attraction_Review-g303631-d4377491-Reviews-Sao_Paulo_Monument_to_Independence-Sao_Paulo_State_of_Sao_Paulo.html,Monumento à Independência,Monumentos e estátuas,"Praça do Monumento s/n | Ipiranga, São Paulo, Estado de São Paulo 04261-050, Brasil",,,182.0,"4,5",45%,40%,14%,1%,0%,False,-23.5778,-46.6114
/Attraction_Review-g303631-d7085156-Reviews-Paroquia_Nossa_Senhora_do_Rosario_de_Fatima-Sao_Paulo_State_of_Sao_Paulo.html,Paróquia Nossa Senhora do Rosário de Fátima,Pontos de interesse,"Avenida Doutor Arnaldo 1.831 | Alto do Sumaré, São Paulo, Estado de São Paulo 01246-000, Brasil",Seg - Sex,08:00 - 12:00,26.0,"4,5",50%,50%,0%,0%,0%,False,-23.55392,-46.67145
/Attraction_Review-g303631-d2277249-Reviews-Museu_da_Casa_Brasileira-Sao_Paulo_State_of_Sao_Paulo.html,Museu da Casa Brasileira,Museus especializados,"Avenida Brigadeiro Faria Lima 2705, São Paulo, Estado de São Paulo 01452-000, Brasil",Ter - Dom,10:00 - 18:00,386.0,"4,0",33%,47%,17%,2%,1%,False,-23.57075,-46.69086
/Attraction_Review-g303631-d4377484-Reviews-Museum_of_the_Faculty_of_Law-Sao_Paulo_State_of_Sao_Paulo.html,Museu da Faculdade de Direito,Museus especializados,"Largo São Francisco, 95, São Paulo, Estado de São Paulo 01005-010, Brasil",,,535.0,"4,5",51%,35%,12%,1%,1%,False,-23.54969,-46.63674
/Attraction_Review-g303631-d17369762-Reviews-Nucleo_Itaim_Biacica-Sao_Paulo_State_of_Sao_Paulo.html,Núcleo Itaim Biacica,Parques,"Estr. da Biacica 756 | Vila Seabra, São Paulo, Estado de São Paulo 08180-370, Brasil",Dom - Sáb,08:00 - 17:00,40.0,"5,0",100%,0%,0%,0%,0%,False,-23.48607,-46.40628
/Attraction_Review-g303631-d2318987-Reviews-Museu_Lasar_Segall-Sao_Paulo_State_of_Sao_Paulo.html,Museu Lasar Segall,Museus de arte,"Rua Berta 111, São Paulo, Estado de São Paulo 04120-040, Brasil",Qua - Seg,11:00 - 19:00,105.0,"4,5",46%,39%,14%,1%,0%,False,-23.59476,-46.6356
/Attraction_Review-g303631-d17456893-Reviews-10_Pedal_Escola_de_Bicicleta-Sao_Paulo_State_of_Sao_Paulo.html,1º Pedal - Escola de Bicicleta,Clínicas e quadras esportivas,"Avenida Professor Fonseca Rodrigues 2001 | Parque Villa Lobos, São Paulo, Estado de São Paulo 05461-010, Brasil",,,48.0,"5,0",100%,0%,0%,0%,0%,False,0.0,0.0
/Attraction_Review-g303631-d7362949-Reviews-Paroquia_Santuario_Sao_Judas_Tadeu-Sao_Paulo_State_of_Sao_Paulo.html,Paróquia Santuário São Judas Tadeu,Pontos de interesse,"Avenida Jabaquara 2682, São Paulo, Estado de São Paulo 04046-500, Brasil",,,62.0,"4,5",54%,33%,9%,4%,0%,False,-23.62729,-46.64229
/Attraction_Review-g303631-d781069-Reviews-Haddock_Lobo_Street-Sao_Paulo_State_of_Sao_Paulo.html,Rua Haddock Lobo,Pontos de interesse,"Haddock Lobo, São Paulo, Estado de São Paulo, Brasil",,,209.0,"4,0",34%,52%,13%,1%,0%,False,-23.56186,-46.66583
/Attraction_Review-g303631-d2350316-Reviews-Luz_Square-Sao_Paulo_State_of_Sao_Paulo.html,Jardim da Luz,Jardins,"Praça da Luz, s/n | Luz, São Paulo, Estado de São Paulo 01120-010, Brasil",Ter - Dom,09:00 - 18:00,341.0,"4,0",23%,47%,22%,7%,1%,False,-23.53428,-46.63672
/Attraction_Review-g303631-d317812-Reviews-Museu_de_Arte_Moderna_de_Sao_Paulo-Sao_Paulo_State_of_Sao_Paulo.html,Museu de Arte Moderna de São Paulo,Museus de arte,"Parque do Ibirapuera, Portão 3, São Paulo, Estado de São Paulo 04094-000, Brasil",Ter - Dom,10:00 - 18:00,499.0,"4,0",42%,38%,15%,4%,1%,False,-23.58894,-46.65341
/Attraction_Review-g303631-d2275510-Reviews-Theatro_Sao_Pedro-Sao_Paulo_State_of_Sao_Paulo.html,Theatro São Pedro,Teatros,"Rua Doutor Albuquerque Lins 207 | Campos Elíseos, São Paulo, Estado de São Paulo 01230-001, Brasil",,,110.0,"4,5",48%,41%,9%,1%,1%,False,-23.53213,-46.65383
/Attraction_Review-g303631-d4788316-Reviews-Se_Square-Sao_Paulo_State_of_Sao_Paulo.html,Praça da Sé,Pontos de interesse,"Centro de São Paulo, São Paulo, Estado de São Paulo, Brasil",,,496.0,"3,5",15%,31%,38%,11%,5%,False,-20.81318,-49.38157
/Attraction_Review-g303631-d2350219-Reviews-Monument_to_the_Bandeiras-Sao_Paulo_State_of_Sao_Paulo.html,Monumento às Bandeiras,Monumentos e estátuas,"Praça Armando de Salles Oliveira | Vila Mariana, São Paulo, Estado de São Paulo 04001-070, Brasil",,,286.0,"4,0",36%,48%,14%,1%,1%,False,-23.16007,-45.89967
/Attraction_Review-g303631-d2518933-Reviews-Paroquia_Nossa_Senhora_da_Aparecida-Sao_Paulo_State_of_Sao_Paulo.html,Paroquia Nossa Senhora da Aparecida,Igrejas e catedrais,"Praca Nossa Senhora Aparecida S/N | Moema, São Paulo, Estado de São Paulo 04075-010, Brasil",Dom - Sáb,05:30 - 22:00,93.0,"4,5",60%,29%,10%,1%,0%,False,-23.60293,-46.6615
/Attraction_Review-g303631-d7331987-Reviews-Feira_da_Madrugada_do_Bras_Street_Market-Sao_Paulo_State_of_Sao_Paulo.html,Feira da Madrugada do Brás - Street Market,Feiras e mercados de pulgas,"Rua Monsenhor de Andrade, São Paulo, Estado de São Paulo 03009-100, Brasil",,,129.0,"4,0",28%,39%,23%,9%,1%,False,-23.54031,-46.62207
/Attraction_Review-g303631-d7940379-Reviews-Galeria_Melissa_Sao_Paulo-Sao_Paulo_State_of_Sao_Paulo.html,Galeria Melissa São Paulo,Galerias de arte,"Rua Oscar Freire 827, São Paulo, Estado de São Paulo 01426-003, Brasil",,,39.0,"4,5",52%,43%,5%,0%,0%,False,-23.56318,-46.66901
/Attraction_Review-g303631-d553244-Reviews-Museu_Paulista-Sao_Paulo_State_of_Sao_Paulo.html,Museu Paulista,Museus de história,"Rua Brigadeiro Jordão, 149 | Ipiranga, São Paulo, Estado de São Paulo 04210-000, Brasil",,,1.371,"4,5",55%,31%,10%,3%,1%,False,-23.58683,-46.60775
/Attraction_Review-g303631-d1419928-Reviews-Reboucas_Convention_Center-Sao_Paulo_State_of_Sao_Paulo.html,Centro de Convenções Rebouças,,"Av. Rebouças, 600 Pinheiros, São Paulo, Estado de São Paulo 05402-000, Brasil",,,119.0,"4,0",31%,52%,15%,2%,0%,False,-23.56933,-46.68774
/Attraction_Review-g303631-d9454423-Reviews-Transamerica_Expo_Center-Sao_Paulo_State_of_Sao_Paulo.html,Transamérica Expo Center,,"Av. Dr. Mário Villas Boas Rodrigues, 387 | Santo Amaro, São Paulo, Estado de São Paulo 04757-020, Brasil",,,183.0,"4,0",33%,42%,18%,6%,1%,False,0.0,0.0
/Attraction_Review-g303631-d15343289-Reviews-Trilha_do_Pai_Ze-Sao_Paulo_State_of_Sao_Paulo.html,Trilha do Pai Zé,Trilhas para caminhada,"Rua Antônio Cardoso Nogueira, 539 | O inico da trilha fica próximo à entrada do parque. Vila Jaraguá, São Paulo, Estado de São Paulo 05184-000, Brasil",,,10.0,"5,0",80%,20%,0%,0%,0%,False,0.0,0.0
/Attraction_Review-g303631-d7257576-Reviews-Espaco_Cultural_Porto_Seguro-Sao_Paulo_State_of_Sao_Paulo.html,Espaço Cultural Porto Seguro,Pontos de interesse,"Alameda Barão de Piracicaba, 610 | Campos Elíseos, São Paulo, Estado de São Paulo 01216-012, Brasil",,,126.0,"4,5",70%,27%,3%,0%,0%,True,-23.53068,-46.64548
/Attraction_Review-g303631-d2350141-Reviews-Olido_Gallery-Sao_Paulo_State_of_Sao_Paulo.html,Galeria Olido,Teatros,"Av. São João, 473 | Centro, São Paulo, Estado de São Paulo 01035-904, Brasil",Seg - Sáb,09:00 - 22:00,72.0,"4,0",25%,57%,16%,1%,1%,False,-21.77624,-48.18168
/Attraction_Review-g303631-d10536421-Reviews-Biblioteca_Parque_Villa_Lobos_BVL-Sao_Paulo_State_of_Sao_Paulo.html,Biblioteca Parque Villa-Lobos (BVL),Bibliotecas,"Av. Prof. Fonseca Rodrigues, 2001 | Alto de Pinheiros, São Paulo, Estado de São Paulo 05461-010, Brasil",Ter - Dom,09:30 - 18:30,22.0,"4,5",69%,27%,4%,0%,0%,False,0.0,0.0
/Attraction_Review-g303631-d11863615-Reviews-Parque_Jardim_das_Perdizes-Sao_Paulo_State_of_Sao_Paulo.html,Parque Jardim das Perdizes,Parques,"Av. Marquês de São Vicente, 2033, Barra Funda, São Paulo, Estado de São Paulo 01139-003, Brasil",,,16.0,"4,5",57%,31%,12%,0%,0%,False,-23.5188,-46.67678
/Attraction_Review-g303631-d532243-Reviews-Manor_Of_The_Marquesa_Of_Santos-Sao_Paulo_State_of_Sao_Paulo.html,Solar Da Marquesa De Santos,Museus especializados,"Rua Roberto Simonsen 136 | Centro, São Paulo, Estado de São Paulo 01017-020, Brasil",,,199.0,"4,0",30%,47%,20%,2%,1%,False,-23.46331,-46.53653
/Attraction_Review-g303631-d8714504-Reviews-SESC_Bom_Retiro-Sao_Paulo_State_of_Sao_Paulo.html,SESC Bom Retiro,Teatros,"Alameda Nothmann 185, São Paulo, Estado de São Paulo 01216-000, Brasil",,,47.0,"4,5",65%,31%,4%,0%,0%,False,-23.5333,-46.64735
/Attraction_Review-g303631-d2350062-Reviews-Feira_do_Bixiga-Sao_Paulo_State_of_Sao_Paulo.html,Feira do Bixiga,Feiras e mercados de pulgas,"Praca Dom Orione s/n | Bela Vista, São Paulo, Estado de São Paulo 01325-020, Brasil",,,159.0,"4,0",29%,40%,25%,4%,2%,False,-23.56291,-46.64579
/Attraction_Review-g303631-d2350266-Reviews-Museu_de_Arte_Brasileira_FAAP-Sao_Paulo_State_of_Sao_Paulo.html,Museu de Arte Brasileira - FAAP,Museus especializados,"Rua Alagoas 903 | Faculdade de Direito da Fundação Armando Alvares Penteado, São Paulo, Estado de São Paulo 01242-902, Brasil",,,163.0,"4,5",58%,34%,7%,0%,1%,False,0.0,0.0
/Attraction_Review-g303631-d2350327-Reviews-Japanese_Pavilion-Sao_Paulo_State_of_Sao_Paulo.html,Pavilhão Japonês,Obras arquitetônicas,"Portões 3 e 10 – Av. Pedro Álvares Cabral - Pq do Ibirapuera | Moema, São Paulo, Estado de São Paulo 04094-050, Brasil",,,96.0,"4,0",32%,46%,15%,5%,2%,False,0.0,0.0
/Attraction_Review-g303631-d6484378-Reviews-Paroquia_Imaculada_Conceicao-Sao_Paulo_State_of_Sao_Paulo.html,Paróquia Imaculada Conceição,Pontos de interesse,"Avenida Brigadeiro Luis Antonio 2071, São Paulo, Estado de São Paulo 01317-002, Brasil",,,28.0,"4,5",55%,35%,10%,0%,0%,False,-23.56619,-46.64793
/Attraction_Review-g303631-d6934987-Reviews-Passeio_de_Maria_Fumaca_Trem_dos_Imigrantes-Sao_Paulo_State_of_Sao_Paulo.html,Passeio de Maria-Fumaça -Trem dos Imigrantes,Pontos de interesse,"Rua Visconde de Paranaíba, 1253 | ABPF Regional São Paulo, São Paulo, Estado de São Paulo 03164-300, Brasil",,,77.0,"4,0",36%,40%,12%,6%,6%,False,0.0,0.0
/Attraction_Review-g303631-d4004207-Reviews-Teatro_Procopio_Ferreira-Sao_Paulo_State_of_Sao_Paulo.html,Teatro Procópio Ferreira,Teatros,"Rua Augusta, 2823 | Cerqueira Cesar, São Paulo, Estado de São Paulo 01413-100, Brasil",Seg - Sex,14:00 - 19:00,304.0,"3,5",17%,42%,31%,8%,2%,False,-23.56532,-46.66763
/Attraction_Review-g303631-d2350291-Reviews-Palacio_dos_Bandeirantes-Sao_Paulo_State_of_Sao_Paulo.html,Palácio dos Bandeirantes,Prédios públicos,"Av. Morumbi, 4500, Portão 2 | Morumbi, São Paulo, Estado de São Paulo 05650-905, Brasil",,,108.0,"4,0",27%,53%,17%,1%,2%,False,-23.5956,-46.70801
/Attraction_Review-g303631-d12855443-Reviews-PRO_MAGNO_Centro_de_Eventos-Sao_Paulo_State_of_Sao_Paulo.html,PRO MAGNO Centro de Eventos,,"avenida professora ida kolb | Jardim das Laranjeiras, São Paulo, Estado de São Paulo 02518-000, Brasil",Seg - Sex,08:00 - 18:00,21.0,"4,0",28%,49%,23%,0%,0%,False,0.0,0.0
/Attraction_Review-g303631-d4377511-Reviews-Museu_de_Policia_Militar_de_Sao_Paulo-Sao_Paulo_State_of_Sao_Paulo.html,Museu da Polícia Militar,Museus especializados,"Rua Jorge Miranda 308 | Luz, São Paulo, Estado de São Paulo 01106-000, Brasil",Ter - Dom,09:00 - 17:00,22.0,"4,5",60%,18%,18%,4%,0%,False,-23.53202,-46.6287
/Attraction_Review-g303631-d2350329-Reviews-Ponte_Estaiada_Octavio_Frias_de_Oliveira-Sao_Paulo_State_of_Sao_Paulo.html,Ponte Estaiada Octavio Frias de Oliveira,Obras arquitetônicas,"Marginal Pinheiros, Entre As Pontes do Morumbi e Eng. Ari Torres | Brooklin, São Paulo, Estado de São Paulo, Brasil",,,319.0,"4,0",32%,44%,21%,2%,1%,False,0.0,0.0
/Attraction_Review-g303631-d8820208-Reviews-Formula_1_Heineken_Grande_Premio_do_Brasil-Sao_Paulo_State_of_Sao_Paulo.html,Formula 1 Heineken Grande Prêmio do Brasil,Eventos esportivos,"Av. Senador Teotônio Vilela s/n | Interlagos, São Paulo, Estado de São Paulo 04801-010, Brasil",,,23.0,"4,5",66%,34%,0%,0%,0%,False,-23.70129,-46.70139
/Attraction_Review-g303631-d9772850-Reviews-Tunel_da_Rota-Sao_Paulo_State_of_Sao_Paulo.html,Túnel da Rota,Museus militares,"Avenida Tiradentes 440, São Paulo, Estado de São Paulo 01102-000, Brasil",,,13.0,"4,5",63%,23%,7%,7%,0%,False,-23.53196,-46.63209
/Attraction_Review-g303631-d4126791-Reviews-Teatro_Sergio_Cardoso-Sao_Paulo_State_of_Sao_Paulo.html,Teatro Sérgio Cardoso,Teatros,"Rua Rui Barbosa, 153, São Paulo, Estado de São Paulo 01326-010, Brasil",,,158.0,"4,0",35%,54%,10%,0%,1%,False,-23.55676,-46.64534
/Attraction_Review-g303631-d9762620-Reviews-Red_Bull_Station-Sao_Paulo_State_of_Sao_Paulo.html,Red Bull Station,,"Praca da Bandeira 137, São Paulo, Estado de São Paulo 01007-020, Brasil",,,34.0,"4,5",44%,51%,5%,0%,0%,False,-23.5502,-46.63905
/Attraction_Review-g303631-d8273766-Reviews-Viaduto_Do_Cha-Sao_Paulo_State_of_Sao_Paulo.html,Viaduto Do Cha,Pontes,"Viaduto do Cha S/N, São Paulo, Estado de São Paulo 01002-020, Brasil",,,97.0,"4,0",31%,45%,22%,1%,1%,False,-23.54711,-46.63723
/Attraction_Review-g303631-d6839730-Reviews-Largo_do_Arouche-Sao_Paulo_State_of_Sao_Paulo.html,Largo do Arouche,Pontos de interesse,"Largo do Arouche 155, São Paulo, Estado de São Paulo 01219-011, Brasil",,,123.0,"3,5",17%,26%,40%,16%,1%,False,-23.54149,-46.64513
/Attraction_Review-g303631-d13355018-Reviews-Playcenter_Family-Sao_Paulo_State_of_Sao_Paulo.html,Playcenter Family,Parques temáticos,"Avenida Aricanduva 5.555, São Paulo, Estado de São Paulo 03527-000, Brasil",Seg - Sex,11:00 - 22:00,29.0,"3,5",30%,20%,27%,10%,13%,False,-23.54815,-46.5252
/Attraction_Review-g303631-d4010890-Reviews-Mercado_Municipal_de_Santo_Amaro-Sao_Paulo_State_of_Sao_Paulo.html,Mercado Municipal de Santo Amaro,Feiras livres,"Rua Padre Jose de Anchieta, 953 | Alto da Boa Vista, São Paulo, Estado de São Paulo 04742-001, Brasil",Seg - Sáb,08:00 - 19:00,120.0,"4,0",31%,53%,15%,1%,0%,False,0.0,0.0
/Attraction_Review-g303631-d9791600-Reviews-Clube_Circulo_Militar-Sao_Paulo_State_of_Sao_Paulo.html,Clube Círculo Militar,Complexos esportivos,"Rua Abilio Soares 1589, São Paulo, Estado de São Paulo 04005-005, Brasil",,,23.0,"4,5",62%,34%,4%,0%,0%,False,-23.58029,-46.65601
/Attraction_Review-g303631-d12229741-Reviews-Centro_Historico-Sao_Paulo_State_of_Sao_Paulo.html,Centro Histórico,Pontos de interesse,"Praça da Sé | Centro, São Paulo, Estado de São Paulo 01001-001, Brasil",Dom - Sáb,00:00 - 23:59,14.0,"4,5",72%,7%,14%,7%,0%,False,-23.55083,-46.63391
/Attraction_Review-g303631-d4035315-Reviews-Gazeta_Theatre-Sao_Paulo_State_of_Sao_Paulo.html,Teatro Gazeta,Teatros,"Avenida Paulista 900, São Paulo, Estado de São Paulo 01310-100, Brasil",Ter,14:00 - 20:00,308.0,"4,0",24%,46%,28%,1%,1%,False,-23.56546,-46.65136
/Attraction_Review-g303631-d8381205-Reviews-Centro_Esportivo_Recreativo_e_Educativo_do_Trabalhador_CERET-Sao_Paulo_State_of_S.html,"Centro Esportivo, Recreativo e Educativo do Trabalhador - CERET",Complexos esportivos,"Rua Canuto Abreu | Vila Formosa, São Paulo, Estado de São Paulo 03336-060, Brasil",,,195.0,"4,5",51%,43%,4%,1%,1%,False,-23.55583,-46.55989
/Attraction_Review-g303631-d2350008-Reviews-Matarazzo_Building_City_Hall_Of_Sao_Paulo-Sao_Paulo_State_of_Sao_Paulo.html,Edifício Matarazzo - Palácio Do Anhangabaú,Obras arquitetônicas,"Viaduto do Chá, 15 | Anhangabaú, São Paulo, Estado de São Paulo 01002-020, Brasil",,,86.0,"4,5",45%,44%,9%,1%,1%,False,-23.54711,-46.63723
/Attraction_Review-g303631-d3952400-Reviews-Parque_Cidade_de_Toronto-Sao_Paulo_State_of_Sao_Paulo.html,Parque Cidade de Toronto,Parques,"Avenida Cardeal Motta 84, São Paulo, Estado de São Paulo 05101-210, Brasil",,,124.0,"4,0",29%,42%,25%,4%,0%,False,-22.73242,-45.09456
/Attraction_Review-g303631-d4127630-Reviews-Citibank_Hall_Theater-Sao_Paulo_State_of_Sao_Paulo.html,Teatro Citibank Hall,Teatros,"Avenida Jamaris 213, São Paulo, Estado de São Paulo 04078-000, Brasil",Seg - Sáb,09:00 - 21:00,170.0,"4,0",37%,48%,12%,2%,1%,False,-23.60521,-46.66109
/Attraction_Review-g303631-d4006970-Reviews-Igreja_Sao_Luis_Gonzaga-Sao_Paulo_State_of_Sao_Paulo.html,Igreja São Luis Gonzaga,Igrejas e catedrais,"Av. Paulista, 2378 | Cerqueira César, São Paulo, Estado de São Paulo 01310-300, Brasil",,,111.0,"4,5",54%,38%,7%,1%,0%,False,-23.55656,-46.6617
/Attraction_Review-g303631-d4783152-Reviews-Praca_Vinicius_de_Moraes-Sao_Paulo_State_of_Sao_Paulo.html,Praça Vinícius de Moraes,Pontos de interesse,"Avenida Giovanni Gronchi 3501, São Paulo, Estado de São Paulo 05651-900, Brasil",,,63.0,"4,5",49%,44%,7%,0%,0%,False,-23.61219,-46.72881
/Attraction_Review-g303631-d7620183-Reviews-Praca_das_Artes-Sao_Paulo_State_of_Sao_Paulo.html,Praça das Artes,Prédios públicos,"Avenida Sao Joao 281, São Paulo, Estado de São Paulo 01035-000, Brasil",,,120.0,"4,5",45%,40%,14%,1%,0%,False,-23.50838,-46.51458
/Attraction_Review-g303631-d11017639-Reviews-Shopping_Vautier-Sao_Paulo_State_of_Sao_Paulo.html,Shopping Vautier,Shopping centers,"Avenida Vautier, 248 | Brás, São Paulo, Estado de São Paulo 03032-000, Brasil",,,24.0,"4,0",33%,47%,8%,4%,8%,False,-23.53502,-46.6224
/Attraction_Review-g303631-d8037996-Reviews-Galeria_Page-Sao_Paulo_State_of_Sao_Paulo.html,Galeria Pagé,Lojas outlet,"Rua Barao de Duprat 315, São Paulo, Estado de São Paulo 01023-001, Brasil",,,102.0,"3,5",17%,41%,31%,10%,1%,False,-23.5413,-46.63088
/Attraction_Review-g303631-d9875202-Reviews-Igreja_Chagas_do_Serafico_Pai_Francisco-Sao_Paulo_State_of_Sao_Paulo.html,Igreja Chagas do Seráfico Pai Francisco,Locais históricos,"Largo Sao Francisco 173, São Paulo, Estado de São Paulo 01005-010, Brasil",,,352.0,"4,5",60%,31%,7%,1%,1%,True,-23.54951,-46.63715
/Attraction_Review-g303631-d10223906-Reviews-Centro_de_Esportes_Radicais-Sao_Paulo_State_of_Sao_Paulo.html,Centro de Esportes Radicais,Parques,"Av. Pres. Castelo Branco, 5700, São Paulo, Estado de São Paulo 01142-300, Brasil",,,34.0,"4,5",48%,47%,5%,0%,0%,False,-23.5175,-46.63962
/Attraction_Review-g303631-d2350004-Reviews-Caixa_Cultural-Sao_Paulo_State_of_Sao_Paulo.html,Caixa Cultural,Museus especializados,"Praça da Sé, 111, São Paulo, Estado de São Paulo 01001-000, Brasil",Ter - Dom,09:00 - 21:00,177.0,"4,5",41%,46%,12%,1%,0%,True,-23.55083,-46.63391
/Attraction_Review-g303631-d9465673-Reviews-Parque_da_Aclimacao-Sao_Paulo_State_of_Sao_Paulo.html,Parque da Aclimação,Parques,"Rua Muniz de Souza, 1119, São Paulo, Estado de São Paulo 01534-001, Brasil",,,64.0,"4,5",54%,43%,3%,0%,0%,False,-23.64293,-46.65056
/Attraction_Review-g303631-d10304568-Reviews-Planetario_do_Carmo-Sao_Paulo_State_of_Sao_Paulo.html,Planetário do Carmo,Observatórios e planetários,"Rua John Speers 137 | Jardim Helian, São Paulo, Estado de São Paulo 08265-040, Brasil",,,25.0,"4,5",80%,16%,0%,0%,4%,False,-23.57681,-46.45805
/Attraction_Review-g303631-d6620792-Reviews-Capela_Santa_Cruz_Almas_Dos_Enforcados-Sao_Paulo_State_of_Sao_Paulo.html,Capela Santa Cruz Almas Dos Enforcados,Pontos de interesse,"Praça da Liberdade,  238, São Paulo, Estado de São Paulo 01503-010, Brasil",Seg - Sex,07:00 - 19:45,40.0,"4,0",32%,46%,17%,5%,0%,False,-23.55548,-46.63541
/Attraction_Review-g303631-d4126650-Reviews-Shopping_Plaza_Sul-Sao_Paulo_State_of_Sao_Paulo.html,Shopping Plaza Sul,Shopping centers,"Praca Leonor Kaupa 100 | Jardim da Saúde, São Paulo, Estado de São Paulo 04151-900, Brasil",Dom,12:00 - 22:00,172.0,"3,5",12%,37%,44%,4%,3%,False,-23.62078,-46.62745
/Attraction_Review-g303631-d8866345-Reviews-Brascan_Open_Mall-Sao_Paulo_State_of_Sao_Paulo.html,Brascan Open Mall,Shopping centers,"Rua Joaquim Floriano, 466, São Paulo, Estado de São Paulo 04534-002, Brasil",,,34.0,"4,5",46%,44%,8%,0%,2%,False,-23.58453,-46.67505
/Attraction_Review-g303631-d7277931-Reviews-Mamusca-Sao_Paulo_State_of_Sao_Paulo.html,Mamusca,Centros cívicos,"Rua Joaquim Antunes 778, São Paulo, Estado de São Paulo 05415-001, Brasil",,,28.0,"4,5",58%,32%,7%,0%,3%,False,-23.56202,-46.68313
/Attraction_Review-g303631-d12837452-Reviews-Casa_Natura_Musical-Sao_Paulo_State_of_Sao_Paulo.html,Casa Natura Musical,Teatros,"Rua Artur de Azevedo, 2.134, São Paulo, Estado de São Paulo 05404-000, Brasil",Ter - Sáb,12:00 - 20:00,28.0,"4,0",41%,35%,17%,7%,0%,False,-23.4348,-46.78232
/Attraction_Review-g303631-d3847359-Reviews-D_D_Shopping-Sao_Paulo_State_of_Sao_Paulo.html,D&D Shopping,Shopping centers,"Av. das Nações Unidas, 12.555, São Paulo, Estado de São Paulo 04578-000, Brasil",Dom,14:00 - 19:00,123.0,"4,0",18%,59%,18%,4%,1%,False,-23.60233,-46.69544
/Attraction_Review-g303631-d2349964-Reviews-Modernist_House-Sao_Paulo_State_of_Sao_Paulo.html,Casa Modernista,Obras arquitetônicas,"Rua Santa Cruz, 325 | Vila Mariana, São Paulo, Estado de São Paulo 04121-000, Brasil",,,81.0,"3,5",15%,42%,30%,9%,4%,False,-23.5972,-46.62993
/Attraction_Review-g303631-d7603232-Reviews-Avenida_Europa-Sao_Paulo_State_of_Sao_Paulo.html,Avenida Europa,Pontos de interesse,"São Paulo, Estado de São Paulo 01449-000, Brasil",,,26.0,"4,5",34%,59%,7%,0%,0%,False,-23.20497,-47.30416
/Attraction_Review-g303631-d4740720-Reviews-Igreja_de_Santa_Ifigenia-Sao_Paulo_State_of_Sao_Paulo.html,Igreja de Santa Ifigênia,Locais religiosos e sagrados,"Rua Santa Ifigenia 30, São Paulo, Estado de São Paulo 01207-000, Brasil",,,117.0,"4,0",29%,49%,18%,3%,1%,False,-23.54116,-46.63711
/Attraction_Review-g303631-d6619183-Reviews-Bixiga_District-Sao_Paulo_State_of_Sao_Paulo.html,Bixiga District,Pontos de interesse,"Rua Martiniano de Carvalho 267 301, São Paulo, Estado de São Paulo 01321-001, Brasil",,,43.0,"4,5",41%,46%,11%,2%,0%,False,-23.5612,-46.64144
/Attraction_Review-g303631-d317782-Reviews-Ciccillo_Matarazzo_Pavilion-Sao_Paulo_State_of_Sao_Paulo.html,Pavilhão Ciccillo Matarazzo,Obras arquitetônicas,"Passarela Ciccillo Matarazzo, São Paulo, Estado de São Paulo 04094-010, Brasil",,,152.0,"4,0",43%,40%,13%,3%,1%,False,-23.58935,-46.65191
/Attraction_Review-g303631-d10506357-Reviews-Memorial_da_Imigracao_Judaica-Sao_Paulo_State_of_Sao_Paulo.html,Memorial da Imigração Judaica,Museus especializados,"Rua da Graça 160 Bom Retiro, São Paulo, Estado de São Paulo 01125-000, Brasil",,,13.0,"4,5",55%,38%,7%,0%,0%,False,-23.52977,-46.63862
/Attraction_Review-g303631-d7349076-Reviews-Vale_do_Anhangabau-Sao_Paulo_State_of_Sao_Paulo.html,Vale do Anhangabaú,Pontos de interesse,"Rua Líbero Badaró - Parque Anhangabaú, São Paulo, Estado de São Paulo, Brasil",,,1.504,"3,5",18%,28%,42%,10%,2%,False,-22.87893,-47.19746
/Attraction_Review-g303631-d2519082-Reviews-Leisure_Bike_Lane_of_the_city_of_Sao_Paulo-Sao_Paulo_State_of_Sao_Paulo.html,Ciclofaixa de Sao Paulo,Trilhas para ciclismo,"Parque do Ibirapuera, São Paulo, Estado de São Paulo 04094-000, Brasil",,,199.0,"3,5",41%,28%,12%,5%,14%,False,-23.58894,-46.65341
/Attraction_Review-g303631-d8870227-Reviews-Vivo_Theater-Sao_Paulo_State_of_Sao_Paulo.html,Teatro Vivo,Teatros,"Av. Dr. Chucri Zaidan, 2460, São Paulo, Estado de São Paulo 04711-130, Brasil",,,28.0,"4,0",35%,45%,10%,10%,0%,False,-23.62385,-46.70004
/Attraction_Review-g303631-d1162871-Reviews-Morumbi_District-Sao_Paulo_State_of_Sao_Paulo.html,Bairro do Morumbi,Bairros,"São Paulo, Estado de São Paulo, Brasil",,,165.0,"4,0",26%,42%,19%,10%,3%,False,-23.20497,-47.30416
/Attraction_Review-g303631-d10340625-Reviews-Teatro_Morumbi_Shopping-Sao_Paulo_State_of_Sao_Paulo.html,Teatro Morumbi Shopping,Teatros,"Avenida Roque Petroni Júnior, 1089 | Morumbi Shopping, São Paulo, Estado de São Paulo 04707-900, Brasil",,,22.0,"4,0",36%,47%,13%,4%,0%,False,0.0,0.0
/Attraction_Review-g303631-d2350021-Reviews-Julio_Prestes_Railway_Station-Sao_Paulo_State_of_Sao_Paulo.html,Estação Júlio Prestes,Obras arquitetônicas,"Praça Júlio Prestes, 16 | Santa Cecília, São Paulo, Estado de São Paulo 01218-020, Brasil",,,108.0,"4,0",34%,40%,17%,8%,1%,False,-23.53389,-46.641
/Attraction_Review-g303631-d8448747-Reviews-Avenida_Brigadeiro_Faria_Lima-Sao_Paulo_State_of_Sao_Paulo.html,Avenida Brigadeiro Faria Lima,Pontos de interesse,"São Paulo, Estado de São Paulo, Brasil",,,47.0,"4,0",36%,48%,12%,2%,2%,False,-23.20497,-47.30416
/Attraction_Review-g303631-d9724074-Reviews-Praca_da_Se-Sao_Paulo_State_of_Sao_Paulo.html,Praca da Se,Pontos de interesse,"Praca da Se, São Paulo, Estado de São Paulo, Brasil",,,68.0,"3,5",22%,26%,25%,20%,7%,False,-23.55083,-46.63391
/Attraction_Review-g303631-d12396503-Reviews-Praca_Ayrton_Senna_do_Brasil-Sao_Paulo_State_of_Sao_Paulo.html,Praça Ayrton Senna do Brasil,Pontos de interesse," | Próximo ao Parque Ibirapuera, São Paulo, Estado de São Paulo, Brasil",,,15.0,"4,5",61%,33%,6%,0%,0%,False,-23.63964,-46.62764
/Attraction_Review-g303631-d8132464-Reviews-Companhia_do_Metropolitano_de_Sao_Paulo_Metro-Sao_Paulo_State_of_Sao_Paulo.html,Companhia do Metropolitano de São Paulo - Metrô,Sistemas de transporte de massa,"São Paulo, Estado de São Paulo, Brasil",,,102.0,"4,0",28%,61%,9%,1%,1%,False,-23.20497,-47.30416
/Attraction_Review-g303631-d1229726-Reviews-Ramos_de_Azevedo_Square-Sao_Paulo_State_of_Sao_Paulo.html,Praça Ramos de Azevedo,Bairros,"Praca Ramos de Azevedo, São Paulo, Estado de São Paulo, Brasil",,,107.0,"3,5",19%,30%,40%,9%,2%,False,-23.55683,-46.73439
/Attraction_Review-g303631-d7258156-Reviews-Geraldo_Jose_de_Almeida_Gymnasium-Sao_Paulo_State_of_Sao_Paulo.html,Ginásio Geraldo José de Almeida,Arenas e estádios,"Rua Manuel da Nóbrega, 1361 | Ibirapuera, São Paulo, Estado de São Paulo 04001-084, Brasil",Dom - Sáb,07:00 - 20:00,67.0,"4,0",29%,43%,22%,1%,5%,False,-23.69573,-46.62724
/Attraction_Review-g303631-d4010772-Reviews-Anhembi_Parque-Sao_Paulo_State_of_Sao_Paulo.html,Anhembi Parque,Teatros,"Av. Olavo Fontoura, 1209 | Santana, São Paulo, Estado de São Paulo 02012-021, Brasil",,,260.0,"4,0",32%,46%,20%,1%,1%,False,-23.51508,-46.64175
/Attraction_Review-g303631-d13200236-Reviews-Sesc_Sao_Paulo-Sao_Paulo_State_of_Sao_Paulo.html,Sesc São Paulo,Centros cívicos,"Rua 24 de Maio, 109, São Paulo, Estado de São Paulo 01041-001, Brasil",,,16.0,"4,5",57%,43%,0%,0%,0%,False,-23.66977,-46.51273
/Attraction_Review-g303631-d8790563-Reviews-Unibes_Cultural-Sao_Paulo_State_of_Sao_Paulo.html,Unibes Cultural,,"Rua Oscar Freire, 2500 | Sumaré, São Paulo, Estado de São Paulo 05409-012, Brasil",Seg - Sáb,10:00 - 19:00,42.0,"4,5",51%,30%,19%,0%,0%,False,-23.55111,-46.67848
/Attraction_Review-g303631-d4126667-Reviews-Jump_Mania_Shopping_Aricanduva-Sao_Paulo_State_of_Sao_Paulo.html,Jump Mania Shopping Aricanduva,Shopping centers,"Avenida Aricanduva 5555 | Shopping Aricanduva - Vila Matilde, São Paulo, Estado de São Paulo 03527-900, Brasil",Dom - Sáb,10:00 - 22:00,128.0,"4,0",46%,35%,15%,3%,1%,False,0.0,0.0
/Attraction_Review-g303631-d14971122-Reviews-Antigo_Banco_de_Sao_Paulo-Sao_Paulo_State_of_Sao_Paulo.html,Antigo Banco de São Paulo,Obras arquitetônicas,"Rua XV de Novembro 347 | Praça Antônio Prado, São Paulo, Estado de São Paulo 01013-001, Brasil",Seg - Qui,10:00 - 11:00,8.0,"5,0",88%,12%,0%,0%,0%,False,-23.44426,-46.91588
/Attraction_Review-g303631-d16819515-Reviews-Ginasio_do_Ibirapuera-Sao_Paulo_State_of_Sao_Paulo.html,Ginásio do Ibirapuera,Complexos esportivos,"R. Manuel da Nóbrega, 1361, São Paulo, Estado de São Paulo 04001-140, Brasil",,,19.0,"4,0",33%,31%,31%,0%,5%,False,-23.69573,-46.62724
/Attraction_Review-g303631-d8059897-Reviews-Basilica_de_Nossa_Senhora_da_Penha_Sao_Paulo_SP-Sao_Paulo_State_of_Sao_Paulo.html,Basilica de Nossa Senhora da Penha - Sao Paulo - SP,Obras arquitetônicas,"Rua Santo Afonso 199, São Paulo, Estado de São Paulo 03632-020, Brasil",,,15.0,"4,5",54%,26%,20%,0%,0%,False,-23.52803,-46.54871
/Attraction_Review-g303631-d8528712-Reviews-Paroquia_Nossa_Senhora_da_Saude-Sao_Paulo_State_of_Sao_Paulo.html,Paróquia Nossa Senhora da Saúde,Igrejas e catedrais,"Rua Domingos de Morais 2387, São Paulo, Estado de São Paulo 04035-000, Brasil",,,26.0,"4,5",63%,34%,3%,0%,0%,False,-23.59749,-46.63652
/Attraction_Review-g303631-d4377488-Reviews-Chapel_of_Sao_Miguel_Arcanjo-Sao_Paulo_State_of_Sao_Paulo.html,Capela de São Miguel Arcanjo,Museus especializados,"Praca Padre Aleixo Monteiro Mafra, 10 | São Miguel Paulista, São Paulo, Estado de São Paulo 08011-010, Brasil",Ter - Sex,14:00 - 19:00,24.0,"4,5",59%,29%,8%,4%,0%,False,0.0,0.0
/Attraction_Review-g303631-d12788802-Reviews-Bosque_das_Cerejeiras-Sao_Paulo_State_of_Sao_Paulo.html,Bosque das Cerejeiras,Natureza e vida selvagem,"Avenida Afonso de Sampaio E Sousa 951 | Itaquera, São Paulo, Estado de São Paulo 08275-025, Brasil",,,6.0,"4,5",67%,33%,0%,0%,0%,False,-23.56695,-46.46815
/Attraction_Review-g303631-d4273377-Reviews-Juventus_Football_Club-Sao_Paulo_State_of_Sao_Paulo.html,Clube Atlético Juventus,Centros cívicos,"Rua Comendador Roberto Ugolini, 20 – Mooca, São Paulo, Estado de São Paulo 03125-010, Brasil",,,57.0,"4,0",31%,37%,28%,1%,3%,False,-23.57315,-46.58858
/Attraction_Review-g303631-d8431741-Reviews-Igreja_Santo_Expedito-Sao_Paulo_State_of_Sao_Paulo.html,Igreja Santo Expedito,Igrejas e catedrais,"Rua Jorge Miranda 264, São Paulo, Estado de São Paulo 01106-000, Brasil",,,14.0,"4,0",44%,28%,28%,0%,0%,False,-23.53194,-46.62907
/Attraction_Review-g303631-d11774057-Reviews-Mercado_Municipal_do_Ipiranga-Sao_Paulo_State_of_Sao_Paulo.html,Mercado Municipal do Ipiranga,Feiras livres,"Rua Silva Bueno, 2109 | Ipiranga, São Paulo, Estado de São Paulo 04208-052, Brasil",,,23.0,"4,0",26%,53%,17%,4%,0%,False,-23.59713,-46.60069
/Attraction_Review-g303631-d4068309-Reviews-Ruth_Escobar_Theatre-Sao_Paulo_State_of_Sao_Paulo.html,Teatro Ruth Escobar,Teatros,"Rua dos Ingleses 209 | Bela Vista, São Paulo, Estado de São Paulo 01329-000, Brasil",Dom - Sáb,10:00 - 22:00,168.0,"3,5",10%,29%,43%,14%,4%,False,-23.56044,-46.64696
/Attraction_Review-g303631-d10628344-Reviews-Eparquia_Nossa_Senhora_do_Paraiso-Sao_Paulo_State_of_Sao_Paulo.html,Eparquia Nossa Senhora do Paraiso,Obras arquitetônicas,"Rua do Paraiso 21, São Paulo, Estado de São Paulo 04103-000, Brasil",,,10.0,"4,5",40%,50%,10%,0%,0%,False,-23.57232,-46.64303
/Attraction_Review-g303631-d3326771-Reviews-Cine_Joia-Sao_Paulo_State_of_Sao_Paulo.html,Cine Joia,Teatros,"Praça Carlos Gomes, 82, São Paulo, Estado de São Paulo 01501-040, Brasil",Seg - Sex,10:00 - 14:00,112.0,"4,0",33%,52%,12%,2%,1%,False,-23.5532,-46.63582
/Attraction_Review-g303631-d4127234-Reviews-Tucarena_Theater-Sao_Paulo_State_of_Sao_Paulo.html,Teatro Tucarena,Teatros,"Rua Monte Alegre 1.024, São Paulo, Estado de São Paulo 05014-000, Brasil",,,79.0,"4,5",37%,56%,7%,0%,0%,False,-23.53939,-46.67147
/Attraction_Review-g303631-d4126669-Reviews-Shopping_Interlar_Interlagos-Sao_Paulo_State_of_Sao_Paulo.html,Shopping Interlar Interlagos,Shopping centers,"Avenida Interlagos 2.255 | Interlagos, São Paulo, Estado de São Paulo 04660-000, Brasil",,,132.0,"3,5",26%,37%,28%,4%,5%,False,-23.6528,-46.67957
/Attraction_Review-g303631-d5221201-Reviews-Memorial_Santa_Paulina_e_Capela_Sagrada_Familia-Sao_Paulo_State_of_Sao_Paulo.html,Memorial Santa Paulina e Capela Sagrada Família,Pontos de interesse,"Avenida Nazare 470, São Paulo, Estado de São Paulo 04262-000, Brasil",,,14.0,"4,5",72%,28%,0%,0%,0%,False,-23.59153,-46.61026
/Attraction_Review-g303631-d10034521-Reviews-Galeria_Metropole-Sao_Paulo_State_of_Sao_Paulo.html,Galeria Metrópole,Shopping centers,"Av. São Luís, 187 | Centro, São Paulo, Estado de São Paulo 01046-001, Brasil",,,14.0,"4,5",44%,42%,14%,0%,0%,False,-21.78273,-48.22522
/Attraction_Review-g303631-d4127558-Reviews-SESC_Consolacao_Espaco_CPT_Theater-Sao_Paulo_State_of_Sao_Paulo.html,SESC Consolação - Espaço CPT - Teatro,Teatros,"Rua Doutor Vila Nova 245, São Paulo, Estado de São Paulo 01222-020, Brasil",Seg - Sex,07:00 - 22:00,58.0,"4,5",43%,53%,1%,3%,0%,False,-23.54433,-46.65028
/Attraction_Review-g303631-d4126626-Reviews-Continental_Shopping-Sao_Paulo_State_of_Sao_Paulo.html,Continental Shopping,Shopping centers,"Avenida Leao Machado 100 | Jaguare, São Paulo, Estado de São Paulo 05328-020, Brasil",,,92.0,"3,5",17%,42%,31%,7%,3%,False,-23.54807,-46.75684
/Attraction_Review-g303631-d4127722-Reviews-Viaduto_Santa_Efigenia-Sao_Paulo_State_of_Sao_Paulo.html,Viaduto Santa Efigénia,Pontos de interesse,"Rua Santa Efigênia, 57, São Paulo, Estado de São Paulo, Brasil",,,265.0,"4,0",23%,46%,26%,4%,1%,False,-18.82427,-42.44212
/Attraction_Review-g303631-d11019327-Reviews-Shopping_All_Bras-Sao_Paulo_State_of_Sao_Paulo.html,Shopping All Brás,Shopping centers,"Rua Rodrigues dos Santos, 91, São Paulo, Estado de São Paulo, Brasil",,,9.0,"4,0",22%,56%,22%,0%,0%,False,-24.31995,-49.1454
/Attraction_Review-g303631-d6761235-Reviews-Largo_do_Paissandu-Sao_Paulo_State_of_Sao_Paulo.html,Largo do Paissandú,Pontos de interesse,"São Paulo, Estado de São Paulo 01034-010, Brasil",,,54.0,"3,0",7%,11%,55%,22%,5%,False,-23.20497,-47.30416
/Attraction_Review-g303631-d14173947-Reviews-Av_Eng_Luis_Carlos_Berrini-Sao_Paulo_State_of_Sao_Paulo.html,Av. Eng.Luís Carlos Berrini,Pontos de interesse,"Avenida Engenheiro Luiz Carlos Berrini 1100 | Cidade Monções, São Paulo, Estado de São Paulo 04571-000, Brasil",Dom - Sáb,00:00 - 23:59,6.0,"4,5",50%,50%,0%,0%,0%,False,0.0,0.0
/Attraction_Review-g303631-d8460170-Reviews-Igreja_da_Matriz_de_Nossa_Senhora_do_O-Sao_Paulo_State_of_Sao_Paulo.html,Igreja da Matriz de Nossa Senhora do Ó,Igrejas e catedrais,"Largo da Matriz de Nossa Senhora do O | Freguesia do Ó, São Paulo, Estado de São Paulo 02925-040, Brasil",,,29.0,"4,0",39%,34%,27%,0%,0%,False,0.0,0.0
/Attraction_Review-g303631-d10729022-Reviews-Ciclovia_Rio_Pinheiros-Sao_Paulo_State_of_Sao_Paulo.html,Ciclovia Rio Pinheiros,Trilhas para ciclismo,"Linha 9-Esmeralda, São Paulo, Estado de São Paulo, Brasil",Dom - Sáb,05:30 - 18:30,13.0,"4,0",23%,70%,7%,0%,0%,False,-23.69974,-46.78638
/Attraction_Review-g303631-d9796931-Reviews-Casa_do_Povo-Sao_Paulo_State_of_Sao_Paulo.html,Casa do Povo,Pontos de interesse,"Rua Três Rios, 252, São Paulo, Estado de São Paulo 01123-000, Brasil",,,14.0,"5,0",93%,7%,0%,0%,0%,False,-23.52953,-46.63603
/Attraction_Review-g303631-d2350238-Reviews-Museu_Brasileiro_da_Escultura_e_Ecologia-Sao_Paulo_State_of_Sao_Paulo.html,Museu Brasileiro da Escultura e Ecologia,Museus de arte,"Rua Alemanha 221 | Jd Europa, São Paulo, Estado de São Paulo 01448-010, Brasil",,,120.0,"4,0",34%,38%,25%,2%,1%,False,-23.51604,-47.4863
/Attraction_Review-g303631-d11832909-Reviews-Feira_Livre_da_Vila_Madalena-Sao_Paulo_State_of_Sao_Paulo.html,Feira Livre da Vila Madalena,Feiras e mercados de pulgas,"Rua Mourato Coelho | Vila Madalena, São Paulo, Estado de São Paulo 05417-012, Brasil",Sáb,06:30 - 13:30,4.0,"5,0",75%,25%,0%,0%,0%,False,-23.56024,-46.68988
/Attraction_Review-g303631-d8146960-Reviews-Palacio_de_Convencoes_do_Anhembi-Sao_Paulo_State_of_Sao_Paulo.html,Palácio de Convenções do Anhembi,,"Avenida Olavo Fontoura 1209, São Paulo, Estado de São Paulo 02012-021, Brasil",,,70.0,"4,0",24%,51%,20%,4%,1%,False,-23.51508,-46.64175
/Attraction_Review-g303631-d4126617-Reviews-Raposo_Shopping-Sao_Paulo_State_of_Sao_Paulo.html,Raposo Shopping,Shopping centers,"Rod. Raposo Tavares, Km 14,5 | Jd. Boa Vista, São Paulo, Estado de São Paulo 05577-200, Brasil",Dom,14:00 - 20:00,98.0,"3,5",20%,33%,37%,6%,4%,False,-23.59654,-46.79756
/Attraction_Review-g303631-d11949795-Reviews-Tropical_Butanta-Sao_Paulo_State_of_Sao_Paulo.html,Tropical Butantã,Teatros,"Avenida Valdemar Ferreira, 93 | Butantã, São Paulo, Estado de São Paulo 05501-000, Brasil",,,22.0,"3,0",13%,29%,27%,13%,18%,False,-23.57183,-46.70508
/Attraction_Review-g303631-d8809624-Reviews-Praca_Silvio_Romero-Sao_Paulo_State_of_Sao_Paulo.html,Praça Sílvio Romero,Pontos de interesse,"Rua Praça Silvio Romero | Tatuapé, São Paulo, Estado de São Paulo 03323-000, Brasil",,,35.0,"3,5",36%,25%,17%,14%,8%,False,-23.54521,-46.57438
/Attraction_Review-g303631-d4127623-Reviews-Espaco_Parlapatoes_Theater-Sao_Paulo_State_of_Sao_Paulo.html,Espaço Parlapatões - Teatro,Teatros,"Praca Franklin Roosevelt 158, São Paulo, Estado de São Paulo 01303-020, Brasil",,,46.0,"4,0",36%,47%,15%,0%,2%,False,-22.9023,-47.04596
/Attraction_Review-g303631-d4765082-Reviews-Biblioteca_de_Sao_Paulo-Sao_Paulo_State_of_Sao_Paulo.html,Biblioteca de São Paulo,Bibliotecas,"Av. Cruzeiro do Sul, 2630, São Paulo, Estado de São Paulo 02030-100, Brasil",Ter - Dom,09:30 - 18:30,49.0,"4,5",60%,34%,6%,0%,0%,False,-23.50957,-46.62508
/Attraction_Review-g303631-d4377460-Reviews-Museum_of_Energy_of_Sao_Paulo-Sao_Paulo_State_of_Sao_Paulo.html,Museu da Energia de São Paulo,Museus especializados,"Alameda Cleveland n 601 | Campos Eliseos, São Paulo, Estado de São Paulo 01218-000, Brasil",Ter - Qua,10:00 - 18:00,18.0,"4,0",33%,45%,22%,0%,0%,False,-23.53028,-46.6433
/Attraction_Review-g303631-d2350014-Reviews-Science_Station_of_the_University_of_Sao_Paulo-Sao_Paulo_State_of_Sao_Paulo.html,Estação Ciência da Universidade de São Paulo,Museus de ciência,"Rua Guaicurus, 1394 | Lapa, São Paulo, Estado de São Paulo 05033-002, Brasil",Seg - Sex,08:00 - 19:00,66.0,"4,0",39%,46%,12%,0%,3%,False,-23.52275,-46.69313
/Attraction_Review-g303631-d10786295-Reviews-Casa_de_Portugal-Sao_Paulo_State_of_Sao_Paulo.html,Casa de Portugal,,"Avenida Liberdade, 602 | Liberdade, São Paulo, Estado de São Paulo 01502-001, Brasil",,,6.0,"4,0",51%,16%,33%,0%,0%,False,-23.55821,-46.63707
/Attraction_Review-g303631-d8310412-Reviews-Parque_Prefeito_Mario_Covas-Sao_Paulo_State_of_Sao_Paulo.html,Parque Prefeito Mário Covas,Parques,"Avenida Paulista 1853, São Paulo, Estado de São Paulo 01311-200, Brasil",Dom - Sáb,07:00 - 18:00,42.0,"4,0",19%,56%,16%,7%,2%,False,-23.55994,-46.65844
/Attraction_Review-g303631-d10820575-Reviews-Prandiano_Museu_da_Matematica-Sao_Paulo_State_of_Sao_Paulo.html,Prandiano Museu da Matemática,Museus especializados,"Rua Gaspar Lourenco 64 | Metrô Ana Rosa, São Paulo, Estado de São Paulo 04107-000, Brasil",,,8.0,"5,0",88%,12%,0%,0%,0%,False,-23.5806,-46.63539
/Attraction_Review-g303631-d15013369-Reviews-Vila_Madalena-Sao_Paulo_State_of_Sao_Paulo.html,Vila Madalena,Pontos de interesse,"Rua Harmonia 26 | Entrada do Beco do Batman - Vila Madalena, São Paulo, Estado de São Paulo 05435-000, Brasil",,,5.0,"4,5",60%,20%,20%,0%,0%,False,0.0,0.0
/Attraction_Review-g303631-d4326768-Reviews-Augusta_Theater-Sao_Paulo_State_of_Sao_Paulo.html,Teatro Augusta,Teatros,"Rua Augusta 943, São Paulo, Estado de São Paulo 01305-100, Brasil",,,76.0,"4,0",27%,35%,38%,0%,0%,False,-23.55333,-46.65493
/Attraction_Review-g303631-d12030078-Reviews-Parque_das_Artes-Sao_Paulo_State_of_Sao_Paulo.html,Parque das Artes,Massas de água,"R. Joaquim Simões Gomes, 420 - Nova Aliança, Ribeirão Preto - SP, São Paulo, Estado de São Paulo 14026-580, Brasil",,,12.0,"4,5",50%,50%,0%,0%,0%,False,0.0,0.0
/Attraction_Review-g303631-d17548998-Reviews-Shopping_Parque_da_Cidade-Sao_Paulo_State_of_Sao_Paulo.html,Shopping Parque da Cidade,Shopping centers,"Av. das Nações Unidas, 14401 | Chácara Santo Antônio (Zona Sul), São Paulo, Estado de São Paulo 04794-000, Brasil",Dom,14:00 - 20:00,15.0,"4,0",26%,48%,26%,0%,0%,False,0.0,0.0
/Attraction_Review-g303631-d4377560-Reviews-Architectural_Site_Small_Hills-Sao_Paulo_State_of_Sao_Paulo.html,Sítio Morrinhos,Museus especializados,"Rua Santo Anselmo 102 | Jardim Sao Bento, São Paulo, Estado de São Paulo 02525-080, Brasil",,,19.0,"4,0",26%,59%,10%,5%,0%,False,-23.50602,-46.64906
/Attraction_Review-g303631-d4377514-Reviews-Museu_de_Geociencias_da_USP-Sao_Paulo_State_of_Sao_Paulo.html,Museu de Geociências da USP,Museus de ciência,"Rua do Lago, 562 | Cidade Universitária, São Paulo, Estado de São Paulo 05508-080, Brasil",,,15.0,"4,0",48%,26%,26%,0%,0%,False,-23.56191,-46.72817
/Attraction_Review-g303631-d7262508-Reviews-Templo_Quan_Inn-Sao_Paulo_State_of_Sao_Paulo.html,Templo Quan-Inn,Pontos de interesse,"Rua Rio Sao Nicolau 328 672, São Paulo, Estado de São Paulo 04858-630, Brasil",,,14.0,"4,0",37%,21%,35%,7%,0%,False,-23.77906,-46.70292
/Attraction_Review-g303631-d8639535-Reviews-Vila_Itororo-Sao_Paulo_State_of_Sao_Paulo.html,Vila Itororó,Locais históricos,"Rua Pedroso 238, São Paulo, Estado de São Paulo 01322-010, Brasil",,,16.0,"4,0",25%,57%,12%,6%,0%,False,-23.56259,-46.64091
/Attraction_Review-g303631-d4127101-Reviews-Oficina_Theater-Sao_Paulo_State_of_Sao_Paulo.html,Teatro Oficina,Teatros,"Rua Jaceguai 520, São Paulo, Estado de São Paulo 01315-010, Brasil",,,27.0,"5,0",89%,11%,0%,0%,0%,False,-23.55526,-46.64122
/Attraction_Review-g303631-d17694716-Reviews-Cervejaria_Kinke-Sao_Paulo_State_of_Sao_Paulo.html,Cervejaria Kinke,Cervejarias,"Rua Venâncio Aires, 1091 | Pompeia, São Paulo, Estado de São Paulo 05024-030, Brasil",Dom,14:00 - 19:30,17.0,"5,0",100%,0%,0%,0%,0%,False,-23.52745,-46.68314
/Attraction_Review-g303631-d8460168-Reviews-Zipper_Galeria-Sao_Paulo_State_of_Sao_Paulo.html,Zipper Galeria,Galerias de arte,"Rua Estados Unidos 1494, São Paulo, Estado de São Paulo 01427-001, Brasil",Seg - Sex,10:00 - 19:00,32.0,"5,0",82%,12%,6%,0%,0%,False,-23.56679,-46.66861
/Attraction_Review-g303631-d13336964-Reviews-Mercado_Municipal_Kinjo_Yamato-Sao_Paulo_State_of_Sao_Paulo.html,Mercado Municipal Kinjo Yamato,Feiras livres,"Rua da Cantareira 377, São Paulo, Estado de São Paulo 01024-100, Brasil",,,7.0,"4,0",44%,28%,14%,14%,0%,False,-23.54094,-46.62978
/Attraction_Review-g303631-d10669948-Reviews-Cantareira_Norte_Shopping-Sao_Paulo_State_of_Sao_Paulo.html,Cantareira Norte Shopping,Shopping centers,"Av. Raimundo Pereira de Magalhães, 11001 | Parada de Taipas, São Paulo, Estado de São Paulo 02984-035, Brasil",Dom,11:00 - 22:00,23.0,"4,0",40%,26%,21%,13%,0%,False,0.0,0.0
/Attraction_Review-g303631-d9882682-Reviews-Praca_Franklin_Roosevelt-Sao_Paulo_State_of_Sao_Paulo.html,Praça Franklin Roosevelt,Pontos de interesse,"São Paulo, Estado de São Paulo 01303-020, Brasil",,,34.0,"4,0",26%,47%,20%,2%,5%,False,-23.20497,-47.30416
/Attraction_Review-g303631-d8376713-Reviews-Catedral_Anglicana_de_Sao_Paulo-Sao_Paulo_State_of_Sao_Paulo.html,Catedral Anglicana de São Paulo,Locais religiosos e sagrados,"Rua Comendador Elias Zarzur 1.239 | Santo Amaro, São Paulo, Estado de São Paulo 04736-000, Brasil",,,31.0,"4,5",68%,32%,0%,0%,0%,False,-23.6503,-46.70113
/Attraction_Review-g303631-d11019349-Reviews-Shopping_25-Sao_Paulo_State_of_Sao_Paulo.html,Shopping 25,Shopping centers,"Rua 25 de Março, 1081, São Paulo, Estado de São Paulo 01021-200, Brasil",,,21.0,"3,5",9%,40%,33%,9%,9%,False,-23.53978,-46.63205
/Attraction_Review-g303631-d8002275-Reviews-Mesquita_Brasil-Sao_Paulo_State_of_Sao_Paulo.html,Mesquita Brasil,Locais religiosos e sagrados,"Rua Barao de Jaguara 630, São Paulo, Estado de São Paulo 01520-010, Brasil",,,6.0,"5,0",84%,16%,0%,0%,0%,False,-23.55841,-46.61814
/Attraction_Review-g303631-d10396527-Reviews-Q_Bazar-Sao_Paulo_State_of_Sao_Paulo.html,Q!Bazar,Lojas outlet,"Avenida Cidade Jardim 691 | Jardim Paulistano, São Paulo, Estado de São Paulo 01453-000, Brasil",,,7.0,"4,0",28%,28%,44%,0%,0%,False,-21.99777,-47.89891
/Attraction_Review-g303631-d11918784-Reviews-Palacio_da_Justica-Sao_Paulo_State_of_Sao_Paulo.html,Palácio da Justiça,Pontos de interesse,"Rua Onze de Agosto, s/n | Praça da Sé, São Paulo, Estado de São Paulo 01018-010, Brasil",,,7.0,"4,5",72%,28%,0%,0%,0%,False,-23.55218,-46.63398
/Attraction_Review-g303631-d13125048-Reviews-Escadaria_do_Patapio-Sao_Paulo_State_of_Sao_Paulo.html,Escadaria do Patapio,Pontos de interesse,"Rua Medeiros de Albuquerque 250 | Vila Madalena, São Paulo, Estado de São Paulo 05436-060, Brasil",Dom - Sáb,00:00 - 23:59,19.0,"3,5",5%,36%,54%,5%,0%,False,-23.55554,-46.68564
/Attraction_Review-g303631-d10529746-Reviews-Seara_Bendita_Instituicao_Espirita-Sao_Paulo_State_of_Sao_Paulo.html,Seara Bendita Instituição Espirita,Pontos de interesse,"R. Demóstenes, 834 - Campo Belo | Travessa da Avenida Vereador José Diniz, São Paulo, Estado de São Paulo 04614-014, Brasil",,,7.0,"4,5",58%,42%,0%,0%,0%,False,0.0,0.0
/Attraction_Review-g303631-d4377496-Reviews-Museu_da_Diversidade_Sexual-Sao_Paulo_State_of_Sao_Paulo.html,Museu da Diversidade Sexual,Museus especializados,"Rua do Arouche, 24 - Praça da República, São Paulo, Estado de São Paulo 1045000, Brasil",,,67.0,"4,0",51%,34%,11%,2%,2%,False,-23.54326,-46.64387
/Attraction_Review-g303631-d4127411-Reviews-SESC_Ipiranga_Theater-Sao_Paulo_State_of_Sao_Paulo.html,Teatro SESC - Ipiranga,Teatros,"Rua Bom Pastor, 822 | Ipiranga, São Paulo, Estado de São Paulo 04203-000, Brasil",Ter - Dom,07:00 - 20:00,61.0,"4,0",40%,45%,13%,1%,1%,False,-23.5839,-46.60784
/Attraction_Review-g303631-d4377506-Reviews-Museum_of_the_Court_of_Justice-Sao_Paulo_State_of_Sao_Paulo.html,Museu do Tribunal de Justiça,Museus especializados,"Rua Conde de Sarzedas 100 | Centro, São Paulo, Estado de São Paulo 01512-000, Brasil",,,16.0,"4,0",37%,45%,12%,6%,0%,False,-23.55371,-46.63235
/Attraction_Review-g303631-d6474545-Reviews-Parque_Belem-Sao_Paulo_State_of_Sao_Paulo.html,Parque Belém,Parques públicos,"Av. Celso Garcia, 2230, São Paulo, Estado de São Paulo 03014-000, Brasil",Dom - Sáb,06:00 - 18:00,32.0,"3,5",12%,48%,34%,6%,0%,False,-23.53691,-46.59054
/Attraction_Review-g303631-d8838844-Reviews-Basilica_Nossa_Senhora_do_Carmo-Sao_Paulo_State_of_Sao_Paulo.html,Basilica Nossa Senhora do Carmo,Igrejas e catedrais,"Rua Martiniano de Carvalho 114, São Paulo, Estado de São Paulo 01321-000, Brasil",,,16.0,"5,0",82%,12%,6%,0%,0%,False,-23.55979,-46.64129
/Attraction_Review-g303631-d8600360-Reviews-Elevado_Presidente_Costa_e_Silva-Sao_Paulo_State_of_Sao_Paulo.html,Elevado Presidente Costa e Silva,Pistas e trilhas para corrida,"Via Elevado Presidente Artur da Costa e Silva, São Paulo, Estado de São Paulo, Brasil",Dom,01:00 - 00:00,33.0,"4,0",27%,46%,21%,6%,0%,False,-23.53958,-46.64804
/Attraction_Review-g303631-d13003451-Reviews-Feira_do_Pacaembu-Sao_Paulo_State_of_Sao_Paulo.html,Feira do Pacaembu,Feiras e mercados de pulgas,"Praça Charles Miller S/n, São Paulo, Estado de São Paulo 01234-010, Brasil",,,6.0,"4,0",0%,84%,16%,0%,0%,False,-23.54495,-46.6658
/Attraction_Review-g303631-d4221222-Reviews-BMFBovespa_Espaco_Raymundo_Magliano_Filho-Sao_Paulo_State_of_Sao_Paulo.html,Espaço Raymundo Magliano Filho,Pontos de interesse,"Rua Quinze de Novembro 275 | Térreo, São Paulo, Estado de São Paulo 01013-906, Brasil",,,16.0,"4,5",45%,37%,18%,0%,0%,False,-23.44426,-46.91596
/Attraction_Review-g303631-d2350281-Reviews-Priest_Anchieta_Museum-Sao_Paulo_State_of_Sao_Paulo.html,Museu Padre Achieta,Museus especializados,"Praça Pateo do Collegio, 2 | Centro, São Paulo, Estado de São Paulo 01016-040, Brasil",,,93.0,"4,0",34%,40%,22%,4%,0%,False,-23.54896,-46.63327
/Attraction_Review-g303631-d4127446-Reviews-Biblioteca_Monteiro_Lobato-Sao_Paulo_State_of_Sao_Paulo.html,Biblioteca Monteiro Lobato,Bibliotecas,"Rua General Jardim 485 | Vila Buarque, São Paulo, Estado de São Paulo 01223-011, Brasil",Dom,10:00 - 14:00,21.0,"4,5",63%,28%,9%,0%,0%,False,-23.54457,-46.65022
/Attraction_Review-g303631-d6109021-Reviews-Cemiterio_Do_Araca-Sao_Paulo_State_of_Sao_Paulo.html,Cemiterio Do Araca,Pontos de interesse,"Avenida Doutor Arnaldo 666 | Pacaembu, São Paulo, Estado de São Paulo 01255-000, Brasil",,,35.0,"3,5",17%,34%,39%,5%,5%,False,-23.54848,-46.68083
/Attraction_Review-g303631-d10426338-Reviews-Chacara_do_Jockey_Municipal_Park-Sao_Paulo_State_of_Sao_Paulo.html,Parque Municipal Chácara do Jockey,Parques,"Avenida Pirajussara, 4748 | Butantã, São Paulo, Estado de São Paulo 05534-000, Brasil",,,34.0,"4,0",14%,55%,29%,2%,0%,False,-23.59141,-46.74108
/Attraction_Review-g303631-d19454612-Reviews-Exposicao_de_Leonardo_Da_Vinci-Sao_Paulo_State_of_Sao_Paulo.html,Exposição de Leonardo da Vinci,Museus especializados,"Rua Vladimir Herzog 75 | Mis Experience - Água Branca, São Paulo, Estado de São Paulo 05036-025, Brasil",Ter - Dom,10:00 - 20:00,15.0,"4,5",88%,6%,0%,0%,6%,False,0.0,0.0
/Attraction_Review-g303631-d12802196-Reviews-Shopping_Porto_Geral-Sao_Paulo_State_of_Sao_Paulo.html,Shopping Porto Geral,Shopping centers,"Ladeira Porto Geral 14, São Paulo, Estado de São Paulo 01022-000, Brasil",,,6.0,"4,0",16%,84%,0%,0%,0%,False,-23.54509,-46.63349
/Attraction_Review-g303631-d15780292-Reviews-Escadaria_das_Bailarinas-Sao_Paulo_State_of_Sao_Paulo.html,Escadaria das Bailarinas,Pontos de interesse,"Rua Alves Guimaraes 753, São Paulo, Estado de São Paulo 05410-001, Brasil",,,8.0,"4,5",63%,0%,37%,0%,0%,False,-23.556,-46.67796
/Attraction_Review-g303631-d4377521-Reviews-Xingu_Museum-Sao_Paulo_State_of_Sao_Paulo.html,Museu Xingu,Museus especializados,"Rua Jose Maria Lisboa 838 | Jardins, São Paulo, Estado de São Paulo 01423-002, Brasil",Seg - Sex,10:00 - 16:00,22.0,"4,5",60%,36%,0%,4%,0%,False,-23.5667,-46.65941
/Attraction_Review-g303631-d4003937-Reviews-Museum_of_the_Civil_Police-Sao_Paulo_State_of_Sao_Paulo.html,Museu da Polícia Civil,Museus especializados,"Praça Prof. Reinaldo Porchat, 219 | Cidade Universitária - Butantã, São Paulo, Estado de São Paulo 04012-190, Brasil",,,31.0,"4,0",22%,50%,25%,3%,0%,False,0.0,0.0
/Attraction_Review-g303631-d10063846-Reviews-Passagem_Literaria_da_Consolacao-Sao_Paulo_State_of_Sao_Paulo.html,Passagem Literária da Consolação,Galerias de arte,"Consolação | esquina com a Avenida Paulista, São Paulo, Estado de São Paulo 01301-100, Brasil",,,17.0,"4,0",23%,49%,23%,0%,5%,False,-23.55231,-46.65239
/Attraction_Review-g303631-d10000969-Reviews-Parque_Cientec-Sao_Paulo_State_of_Sao_Paulo.html,Parque Cientec,Parques,"Av. Miguel Stéfano, 4200 | Água Funda, São Paulo, Estado de São Paulo 04301-904, Brasil",,,9.0,"4,0",22%,56%,22%,0%,0%,False,-23.6507,-46.62097
/Attraction_Review-g303631-d3227183-Reviews-Instituto_Lina_Bo_e_P_M_Bardi-Sao_Paulo_State_of_Sao_Paulo.html,Instituto Lina Bo e P. M. Bardi,Locais educativos,"Rua General Almerio de Moura 200, São Paulo, Estado de São Paulo 05690-080, Brasil",,,34.0,"4,5",66%,32%,0%,0%,2%,False,-23.61334,-46.71196
/Attraction_Review-g303631-d4377508-Reviews-Museum_of_the_Holy_House_of_Mercy-Sao_Paulo_State_of_Sao_Paulo.html,Museu da Santa Casa da Misericórdia,Museus especializados,"Rua Doutor Cesario Mota Junior 112 | Vila Buarque, São Paulo, Estado de São Paulo 01221-900, Brasil",,,15.0,"4,5",33%,61%,6%,0%,0%,False,-23.54465,-46.64897
/Attraction_Review-g303631-d4126697-Reviews-Folha_Theater-Sao_Paulo_State_of_Sao_Paulo.html,Teatro da Folha,Teatros,"Avenida Higienopolis 618, São Paulo, Estado de São Paulo 01238-000, Brasil",,,132.0,"4,0",19%,55%,24%,1%,1%,False,-23.54248,-46.6587
/Attraction_Review-g303631-d7621187-Reviews-Teatro_J_Safra-Sao_Paulo_State_of_Sao_Paulo.html,Teatro J. Safra,Teatros,"Rua Josef Kryss 318 | Barra Funda, São Paulo, Estado de São Paulo 01140-050, Brasil",,,70.0,"4,0",34%,58%,7%,0%,1%,False,-23.51619,-46.67779
/Attraction_Review-g303631-d2350148-Reviews-Galeria_Ouro_Fino-Sao_Paulo_State_of_Sao_Paulo.html,Galeria Ouro Fino,Shopping centers,"Rua Augusta, 2690 | Jd Paulista, São Paulo, Estado de São Paulo 01412-100, Brasil",,,39.0,"3,5",15%,28%,50%,7%,0%,False,-23.56432,-46.66679
/Attraction_Review-g303631-d4475301-Reviews-Springs_of_the_Ipiranga_State_Park-Sao_Paulo_State_of_Sao_Paulo.html,Parque Estadual Fontes do Ipiranga,Parques públicos,"Avenida Miguel Estéfano, 3031 | Água Funda, São Paulo, Estado de São Paulo 04301-902, Brasil",Ter - Dom,09:00 - 17:00,53.0,"4,5",53%,37%,9%,1%,0%,False,-23.65756,-46.6172
/Attraction_Review-g303631-d9764077-Reviews-Casa_Mario_de_Andrade-Sao_Paulo_State_of_Sao_Paulo.html,Casa Mário de Andrade,Pontos de interesse,"Rua Lopes Chaves,. 546 | Barra Funda, São Paulo, Estado de São Paulo 01154-010, Brasil",,,13.0,"4,5",47%,38%,15%,0%,0%,False,-23.54626,-47.4382
/Attraction_Review-g303631-d9595614-Reviews-Market_Paulista-Sao_Paulo_State_of_Sao_Paulo.html,Market Paulista,Shopping centers,"Avenida Paulista 1941, São Paulo, Estado de São Paulo 01311-300, Brasil",,,19.0,"3,0",15%,34%,26%,10%,15%,False,-23.55959,-46.65876
/Attraction_Review-g303631-d10352984-Reviews-Parque_Estadual_da_Cantareira-Sao_Paulo_State_of_Sao_Paulo.html,Parque Estadual da Cantareira,Parques públicos,"Avenida Senador José Erminio de Morais, s/n | Núcleo Águas Claras - Sítio Barrocada, São Paulo, Estado de São Paulo 02357-000, Brasil",Sáb - Dom,08:00 - 17:00,10.0,"4,5",60%,30%,10%,0%,0%,False,0.0,0.0
/Attraction_Review-g303631-d7331304-Reviews-Paroquia_Nossa_Senhora_Auxiliadora-Sao_Paulo_State_of_Sao_Paulo.html,Paróquia Nossa Senhora Auxiliadora,Pontos de interesse,"Rua Tres Rios 75, São Paulo, Estado de São Paulo 01123-001, Brasil",,,15.0,"4,5",40%,47%,13%,0%,0%,False,-23.52977,-46.63477
/Attraction_Review-g303631-d4126817-Reviews-Esporte_Clube_Pinheiros_Theater-Sao_Paulo_State_of_Sao_Paulo.html,Esporte Clube Pinheiros-Teatro,Teatros,"Rua Tucuma, 528, São Paulo, Estado de São Paulo 04714-070, Brasil",,,36.0,"4,5",54%,44%,2%,0%,0%,False,-23.58184,-46.68985
/Attraction_Review-g303631-d12007480-Reviews-Ipe_Clube-Sao_Paulo_State_of_Sao_Paulo.html,Ipe Clube,Complexos esportivos,"Rua Ipê, 103, São Paulo, Estado de São Paulo 04022-005, Brasil",Dom - Sáb,06:00 - 21:00,8.0,"3,5",38%,25%,12%,0%,25%,False,-23.59363,-46.65243
/Attraction_Review-g303631-d12998684-Reviews-Parque_Cidade_das_Criancas-Sao_Paulo_State_of_Sao_Paulo.html,Parque Cidade das Crianças,Playgrounds,"Alameda Conde de Porto Alegre, 840, São Paulo, Estado de São Paulo 09561-000, Brasil",Dom - Sáb,07:00 - 18:00,4.0,"5,0",75%,25%,0%,0%,0%,False,-23.63391,-46.55546
/Attraction_Review-g303631-d7648455-Reviews-Galeria_de_Arte_Digital_do_Sesi_SP-Sao_Paulo_State_of_Sao_Paulo.html,Galeria de Arte Digital do Sesi-SP,Galerias de arte,"Avenida Paulista 1313, São Paulo, Estado de São Paulo 01311-923, Brasil",,,24.0,"4,5",50%,50%,0%,0%,0%,False,-23.5635,-46.65431
/Attraction_Review-g303631-d10177618-Reviews-Praca_Horacio_Sabino-Sao_Paulo_State_of_Sao_Paulo.html,Praça Horácio Sabino,Pontos de interesse,"São Paulo, Estado de São Paulo 05412-004, Brasil",,,8.0,"4,0",39%,37%,12%,12%,0%,False,-23.20497,-47.30416
/Attraction_Review-g303631-d8078620-Reviews-Monumento_a_Duque_de_Caxias-Sao_Paulo_State_of_Sao_Paulo.html,Monumento a Duque de Caxias,Monumentos e estátuas,"Praca Princesa Isabel 84 | Centro, São Paulo, Estado de São Paulo 01206-972, Brasil",,,22.0,"3,5",13%,31%,48%,4%,4%,False,-21.20715,-50.44029
/Attraction_Review-g303631-d10962054-Reviews-Banco_Honda_Hall-Sao_Paulo_State_of_Sao_Paulo.html,Banco Honda Hall,,"Rua Júlio Diniz, 176 | Vila Olimpia, São Paulo, Estado de São Paulo 04547-090, Brasil",,,77.0,"4,0",19%,57%,18%,3%,3%,False,-23.59947,-46.68503
/Attraction_Review-g303631-d2350179-Reviews-Church_of_the_Third_Order_of_Carmo-Sao_Paulo_State_of_Sao_Paulo.html,Igreja da Ordem Terceira do Carmo,Igrejas e catedrais,"Av. Rangel Pestana, 230 | Brás - Centro, São Paulo, Estado de São Paulo 01017-000, Brasil",,,28.0,"4,0",28%,65%,0%,7%,0%,False,-23.54943,-46.62922
/Attraction_Review-g303631-d4375842-Reviews-Image_House_and_Alley_Pinto-Sao_Paulo_State_of_Sao_Paulo.html,Casa da Imagem e Beco do Pinto,Museus especializados,"Rua Roberto Simonsen s/n | Centro, São Paulo, Estado de São Paulo 01017-020, Brasil",,,40.0,"4,0",30%,48%,20%,2%,0%,False,-23.46325,-46.53599
/Attraction_Review-g303631-d4377516-Reviews-Casa_Guilherme_de_Almeida-Sao_Paulo_State_of_Sao_Paulo.html,Casa Guilherme de Almeida,Museus especializados,"Rua Macapa 187 | Perdizes, São Paulo, Estado de São Paulo 01251-080, Brasil",,,23.0,"4,5",53%,47%,0%,0%,0%,False,-23.54681,-46.67405
/Attraction_Review-g303631-d13100333-Reviews-Emporio_da_Cerveja-Sao_Paulo_State_of_Sao_Paulo.html,Emporio da Cerveja,Cervejarias,"Rua Domingos de Morais 265 | Vila Mariana, São Paulo, Estado de São Paulo 04009-000, Brasil",Seg - Qui,10:00 - 19:00,6.0,"4,5",84%,0%,0%,16%,0%,False,-23.57949,-46.64045
/Attraction_Review-g303631-d2350360-Reviews-English_Village-Sao_Paulo_State_of_Sao_Paulo.html,Vila dos Ingleses,Áreas históricas para caminhadas,"Rua Mauá, 836 | Luz, São Paulo, Estado de São Paulo 01028-000, Brasil",,,17.0,"4,0",23%,43%,29%,5%,0%,False,-23.66845,-46.47879
/Attraction_Review-g303631-d8704118-Reviews-Teatro_Cacilda_Becker-Sao_Paulo_State_of_Sao_Paulo.html,Teatro Cacilda Becker,Teatros,"Rua Tito 295 | Lapa, São Paulo, Estado de São Paulo 05051-000, Brasil",,,17.0,"4,5",48%,47%,5%,0%,0%,False,-23.52807,-46.69329
/Attraction_Review-g303631-d6839500-Reviews-Praca_Panamericana-Sao_Paulo_State_of_Sao_Paulo.html,Praça Panamericana,Pontos de interesse,"Praca Pan-Americana, São Paulo, Estado de São Paulo 05461-000, Brasil",,,28.0,"3,5",10%,41%,39%,10%,0%,False,-22.93191,-47.06383
/Attraction_Review-g303631-d8822004-Reviews-Praca_do_Patriarca-Sao_Paulo_State_of_Sao_Paulo.html,Praça do Patriarca,Pontos de interesse,"São Paulo, Estado de São Paulo, Brasil",,,15.0,"3,0",20%,13%,35%,26%,6%,False,-23.20497,-47.30416
/Attraction_Review-g303631-d10373257-Reviews-Paroquia_Santo_Antonio_do_Pari-Sao_Paulo_State_of_Sao_Paulo.html,Paroquia Santo Antonio do Parí,Igrejas e catedrais,"Praca Padre Bento 13, São Paulo, Estado de São Paulo 03031-050, Brasil",,,10.0,"4,5",40%,50%,10%,0%,0%,False,-23.53316,-46.61873
/Attraction_Review-g303631-d4127465-Reviews-Teatro_Paulo_Autran-Sao_Paulo_State_of_Sao_Paulo.html,Teatro Paulo Autran,Teatros,"Rua Pais Leme 195 | SESC Pinheiros, São Paulo, Estado de São Paulo 05424-150, Brasil",,,43.0,"4,0",32%,58%,6%,2%,2%,False,-23.56764,-46.69928
/Attraction_Review-g303631-d4479903-Reviews-Ecological_Park_Guarapiranga-Sao_Paulo_State_of_Sao_Paulo.html,Parque Ecológico Guarapiranga,Parques,"Estrada da Riviera, 3.286 | Riviera Paulista, São Paulo, Estado de São Paulo 04916-000, Brasil",,,47.0,"4,0",31%,53%,12%,0%,4%,False,-23.70052,-46.74567
/Attraction_Review-g303631-d3589548-Reviews-Victor_Civita_Square-Sao_Paulo_State_of_Sao_Paulo.html,Praça Victor Civita,Parques,"Rua Sumidouro 580 | Pinheiros São Paulo, São Paulo, Estado de São Paulo 05428-010, Brasil",Dom - Sáb,06:30 - 19:00,41.0,"4,0",49%,36%,4%,9%,2%,False,-23.56495,-46.70116
/Attraction_Review-g303631-d4127122-Reviews-Paulo_Eiro_Theater-Sao_Paulo_State_of_Sao_Paulo.html,Teatro Paulo Eiro,Teatros,"Avenida Adolfo Pinheiro 765, São Paulo, Estado de São Paulo 04733-100, Brasil",,,18.0,"4,5",38%,51%,11%,0%,0%,False,-23.64724,-46.70226
/Attraction_Review-g303631-d19407862-Reviews-Mis_Experience-Sao_Paulo_State_of_Sao_Paulo.html,Mis Experience,Museus especializados,"Rua Vladimir Herzog 75 | Água Branca, São Paulo, Estado de São Paulo 05036-025, Brasil",,,21.0,"4,0",54%,28%,14%,0%,4%,False,-23.51294,-46.69352
/Attraction_Review-g303631-d6692474-Reviews-Igreja_Nossa_Senhora_Do_Rosario_Dos_Homens_Pretos-Sao_Paulo_State_of_Sao_Paulo.html,Igreja Nossa Senhora Do Rosário Dos Homens Pretos,Igrejas e catedrais,"Largo do Paissandú, s/nº, São Paulo, Estado de São Paulo 01034-010, Brasil",Dom,09:00 - 09:30,22.0,"4,0",38%,22%,36%,4%,0%,False,-23.54278,-46.63775
/Attraction_Review-g303631-d8153309-Reviews-Palacio_dos_Correios-Sao_Paulo_State_of_Sao_Paulo.html,Palácio dos Correios,Pontos de interesse,"Avenida Sao Joao 1588 | Vale do Anhangabaú, São Paulo, Estado de São Paulo 01211-900, Brasil",,,15.0,"4,5",54%,46%,0%,0%,0%,False,-23.53667,-46.65062
/Attraction_Review-g303631-d12904418-Reviews-Catedral_Metropolitana_Ortodoxa_de_Sao_Paulo-Sao_Paulo_State_of_Sao_Paulo.html,Catedral Metropolitana Ortodoxa de Sao Paulo,Igrejas e catedrais,"Rua Vergueiro 1515 | Estación Paraíso Linea Azul, São Paulo, Estado de São Paulo 04101-000, Brasil",Seg - Sex,09:00 - 13:00,7.0,"5,0",86%,14%,0%,0%,0%,False,-23.57583,-46.64066
/Attraction_Review-g303631-d10117396-Reviews-Lohan_Temple-Sao_Paulo_State_of_Sao_Paulo.html,Templo Lohan,Locais religiosos e sagrados,"Rua Conselheiro Furtado, 445, São Paulo, Estado de São Paulo 01511-000, Brasil",,,12.0,"4,0",42%,33%,25%,0%,0%,False,-23.55683,-46.63284
/Attraction_Review-g303631-d13286016-Reviews-Auditorio_Simon_Bolivar-Sao_Paulo_State_of_Sao_Paulo.html,Auditorio Simon Bolivar,Pontos de interesse,"Avenida Auro Soares de Moura Andrade 664 | interno ao complexo Memorial da América Latina, São Paulo, Estado de São Paulo 01156-001, Brasil",,,4.0,"4,5",50%,50%,0%,0%,0%,False,0.0,0.0
